{"CN_GUDO_SZ0001":{"id":"CN_GUDO_SZ0001","code":"SZ0001","locator":"CN_GUDO_SZ","body":{"birth":1995},"service":{},"charge":{},"character":{},"rating":{"t":1622187419018,"overall":85,"character":70,"service":70},"status":{"t":1622187419018,"flag":1},"location":{"nation":"CN","province":"GUDO","city":"SZ","district":"罗湖"},"feed":{"t":1622187419018},"secret":{"t":1622187419018},"extra":{},"type":1},"CN_GUDO_SZ0002":{"id":"CN_GUDO_SZ0002","code":"SZ0002","locator":"CN_GUDO_SZ","body":{},"service":{"form":553648144,"pubis":65536},"charge":{},"character":{},"rating":{"t":1622187419018},"status":{"t":1622187419018,"flag":1},"location":{"nation":"CN","province":"GUDO","city":"SZ","district":"不定区"},"feed":{"t":1622187419018},"secret":{"t":1622187419018},"extra":{},"type":17},"CN_GUDO_SZ0004":{"id":"CN_GUDO_SZ0004","code":"SZ0004","locator":"CN_GUDO_SZ","body":{"birth":1995},"service":{},"charge":{},"character":{},"rating":{"t":1622187419018},"status":{"t":1622187419018,"flag":1},"location":{"nation":"CN","province":"GUDO","city":"SZ","district":"罗湖"},"feed":{"t":1622187419018},"secret":{"t":1622187419018},"extra":{},"type":1},"CN_GUDO_SZ0005":{"id":"CN_GUDO_SZ0005","code":"SZ0005","locator":"CN_GUDO_SZ","body":{"birth":1985},"service":{"form":553648144},"charge":{},"character":{},"rating":{"t":1622187419018},"status":{"t":1622187419018,"flag":1},"location":{"nation":"CN","province":"GUDO","city":"SZ","district":"罗湖"},"feed":{"t":1622187419018},"secret":{"t":1622187419018},"extra":{},"type":1},"CN_GUDO_SZ0007":{"id":"CN_GUDO_SZ0007","code":"SZ0007","locator":"CN_GUDO_SZ","body":{"birth":1995},"service":{"open":1,"hand":16},"charge":{},"character":{},"rating":{"t":1622187419018,"overall":85,"face":70},"status":{"t":1622187419018,"flag":1},"location":{"nation":"CN","province":"GUDO","city":"SZ","district":"罗湖"},"feed":{"t":1622187419018},"secret":{"t":1622187419018},"extra":{},"type":1},"CN_GUDO_SZ0010":{"id":"CN_GUDO_SZ0010","code":"SZ0010","locator":"CN_GUDO_SZ","body":{"height":160,"birth":1990},"service":{"form":553648156},"charge":{},"character":{},"rating":{"t":1622187419018,"overall":70,"service":70},"status":{"t":1622187419018,"flag":1},"location":{"nation":"CN","province":"GUDO","city":"SZ","district":"龙华"},"feed":{"t":1622187419018},"secret":{"t":1622187419018},"extra":{},"type":1},"CN_GUDO_SZ0012":{"id":"CN_GUDO_SZ0012","code":"SZ0012","locator":"CN_GUDO_SZ","body":{"birth":"1988","height":"160","weight":"52","chest":"25"},"service":{"form":587202576,"tool":65566,"body":1048656,"hand":64,"pubis":1,"mouth":32912,"open":768},"charge":{"x1":"500","night1":"1000"},"character":{"flag":131072},"rating":{"t":1622187419018},"status":{"t":1622187419018,"flag":1},"location":{"nation":"CN","province":"GUDO","city":"SZ","district":"罗湖"},"feed":{"t":1622187419018},"secret":{"t":1622187419018},"extra":{},"type":1,"t":1639309522000},"CN_GUDO_SZ0013":{"id":"CN_GUDO_SZ0013","code":"SZ0013","locator":"CN_GUDO_SZ","body":{"birth":1990},"service":{"form":553648148,"pubis":1114112},"charge":{},"character":{},"rating":{"t":1622187419018,"overall":70,"service":70},"status":{"t":1622187419018,"flag":1},"location":{"nation":"CN","province":"GUDO","city":"SZ","district":"不定区,上门"},"feed":{"t":1622187419018},"secret":{"t":1622187419018},"extra":{},"type":1},"CN_GUDO_SZ0014":{"id":"CN_GUDO_SZ0014","code":"SZ0014","locator":"CN_GUDO_SZ","body":{"birth":1985},"service":{"form":553648148},"charge":{},"character":{},"rating":{"t":1622187419018,"shape":70,"character":70,"service":70},"status":{"t":1622187419018,"flag":1},"location":{"nation":"CN","province":"GUDO","city":"SZ","district":"不定区"},"feed":{"t":1622187419018},"secret":{"t":1622187419018},"extra":{},"type":1},"CN_GUDO_SZ0015":{"id":"CN_GUDO_SZ0015","code":"SZ0015","locator":"CN_GUDO_SZ","body":{"birth":1990},"service":{},"charge":{},"character":{},"rating":{"t":1622187419018,"service":70},"status":{"t":1622187419018,"flag":1},"location":{"nation":"CN","province":"GUDO","city":"SZ","district":"福田"},"feed":{"t":1622187419018},"secret":{"t":1622187419018},"extra":{},"type":1},"CN_GUDO_SZ0016":{"id":"CN_GUDO_SZ0016","code":"SZ0016","locator":"CN_GUDO_SZ","body":{"birth":1980},"service":{"form":553648148,"pubis":65536,"flag":131072},"charge":{},"character":{},"rating":{"t":1622187419018,"overall":70,"service":70},"status":{"t":1622187419018,"flag":1},"location":{"nation":"CN","province":"GUDO","city":"SZ","district":"不定区,上门,全国空降"},"feed":{"t":1622187419018},"secret":{"t":1622187419018},"extra":{},"type":1},"CN_GUDO_SZ0017":{"id":"CN_GUDO_SZ0017","code":"SZ0017","locator":"CN_GUDO_SZ","body":{"birth":1990},"service":{},"charge":{},"character":{},"rating":{"t":1622187419018,"overall":85,"service":70},"status":{"t":1622187419018,"flag":1},"location":{"nation":"CN","province":"GUDO","city":"SZ","district":"罗湖"},"feed":{"t":1622187419018},"secret":{"t":1622187419018},"extra":{},"type":1},"CN_GUDO_SZ0018":{"id":"CN_GUDO_SZ0018","code":"SZ0018","locator":"CN_GUDO_SZ","body":{"birth":1995},"service":{},"charge":{},"character":{},"rating":{"t":1622187419018,"face":70},"status":{"t":1622187419018,"flag":1},"location":{"nation":"CN","province":"GUDO","city":"SZ","district":"南山"},"feed":{"t":1622187419018},"secret":{"t":1622187419018},"extra":{},"type":1},"CN_GUDO_SZ0019":{"id":"CN_GUDO_SZ0019","code":"SZ0019","locator":"CN_GUDO_SZ","body":{"birth":2000},"service":{"open":1,"hand":16},"charge":{},"character":{},"rating":{"t":1622187419018,"overall":85,"face":70,"shape":70},"status":{"t":1622187419018,"flag":1},"location":{"nation":"CN","province":"GUDO","city":"SZ","district":"罗湖"},"feed":{"t":1622187419018},"secret":{"t":1622187419018},"extra":{},"type":1},"CN_GUDO_SZ0021":{"id":"CN_GUDO_SZ0021","code":"SZ0021","locator":"CN_GUDO_SZ","body":{"birth":1990},"service":{"form":8},"charge":{},"character":{},"rating":{"t":1622187419018,"overall":70,"shape":70},"status":{"t":1622187419018,"flag":1},"location":{"nation":"CN","province":"GUDO","city":"SZ","district":"宝安"},"feed":{"t":1622187419018},"secret":{"t":1622187419018},"extra":{},"type":1},"CN_GUDO_SZ0022":{"id":"CN_GUDO_SZ0022","code":"SZ0022","locator":"CN_GUDO_SZ","body":{"birth":2000},"service":{},"charge":{},"character":{},"rating":{"t":1622187419018,"overall":70},"status":{"t":1622187419018,"flag":1},"location":{"nation":"CN","province":"GUDO","city":"SZ","district":"龙华"},"feed":{"t":1622187419018},"secret":{"t":1622187419018},"extra":{},"type":1},"CN_GUDO_SZ0023":{"id":"CN_GUDO_SZ0023","code":"SZ0023","locator":"CN_GUDO_SZ","body":{"birth":1990},"service":{},"charge":{},"character":{},"rating":{"t":1622187419018,"service":70},"status":{"t":1622187419018,"flag":1},"location":{"nation":"CN","province":"GUDO","city":"SZ","district":"宝安,沙井"},"feed":{"t":1622187419018},"secret":{"t":1622187419018},"extra":{},"type":1},"CN_GUDO_SZ0024":{"id":"CN_GUDO_SZ0024","code":"SZ0024","locator":"CN_GUDO_SZ","body":{"birth":1995},"service":{"open":1,"hand":16,"flag":131072,"form":8},"charge":{},"character":{},"rating":{"t":1622187419018,"overall":70,"face":70,"shape":70},"status":{"t":1622187419018,"flag":1},"location":{"nation":"CN","province":"GUDO","city":"SZ","district":"罗湖"},"feed":{"t":1622187419018},"secret":{"t":1622187419018},"extra":{},"type":1},"CN_GUDO_SZ0025":{"id":"CN_GUDO_SZ0025","code":"SZ0025","locator":"CN_GUDO_SZ","body":{"height":155,"birth":2000},"service":{"open":1,"hand":16},"charge":{},"character":{},"rating":{"t":1622187419018,"overall":70,"face":70,"character":70,"service":70},"status":{"t":1622187419018,"flag":1},"location":{"nation":"CN","province":"GUDO","city":"SZ","district":"罗湖"},"feed":{"t":1622187419018},"secret":{"t":1622187419018},"extra":{},"type":1},"CN_GUDO_SZ0026":{"id":"CN_GUDO_SZ0026","code":"SZ0026","locator":"CN_GUDO_SZ","body":{"height":165,"birth":1990},"service":{"form":553648152,"pubis":65536},"charge":{},"character":{},"rating":{"t":1622187419018,"overall":70,"service":70},"status":{"t":1622187419018,"flag":1},"location":{"nation":"CN","province":"GUDO","city":"SZ","district":"龙岗,横岗"},"feed":{"t":1622187419018},"secret":{"t":1622187419018},"extra":{},"type":1},"CN_GUDO_SZ0027":{"id":"CN_GUDO_SZ0027","code":"SZ0027","locator":"CN_GUDO_SZ","body":{"birth":1990},"service":{"pubis":1048576},"charge":{},"character":{},"rating":{"t":1622187419018},"status":{"t":1622187419018,"flag":1},"location":{"nation":"CN","province":"GUDO","city":"SZ","district":"福田,上下沙"},"feed":{"t":1622187419018},"secret":{"t":1622187419018},"extra":{},"type":1},"CN_GUDO_SZ0028":{"id":"CN_GUDO_SZ0028","code":"SZ0028","locator":"CN_GUDO_SZ","body":{"height":155,"birth":2000},"service":{"form":8},"charge":{},"character":{},"rating":{"t":1622187419018,"character":70},"status":{"t":1622187419018,"flag":1},"location":{"nation":"CN","province":"GUDO","city":"SZ","district":"宝安,沙井"},"feed":{"t":1622187419018},"secret":{"t":1622187419018},"extra":{},"type":1},"CN_GUDO_SZ0029":{"id":"CN_GUDO_SZ0029","code":"SZ0029","locator":"CN_GUDO_SZ","body":{"birth":1995},"service":{"form":553648144},"charge":{},"character":{},"rating":{"t":1622187419018,"overall":70,"face":70,"shape":70},"status":{"t":1622187419018,"flag":1},"location":{"nation":"CN","province":"GUDO","city":"SZ","district":"不定区,上门,全国空降"},"feed":{"t":1622187419018},"secret":{"t":1622187419018},"extra":{},"type":1},"CN_GUDO_SZ0030":{"id":"CN_GUDO_SZ0030","code":"SZ0030","locator":"CN_GUDO_SZ","body":{"height":165,"birth":1995},"service":{"form":4},"charge":{},"character":{},"rating":{"t":1622187419018,"overall":70,"shape":70},"status":{"t":1622187419018,"flag":9},"location":{"nation":"CN","province":"GUDO","city":"SZ","district":"南山"},"feed":{"t":1622187419018},"secret":{"t":1622187419018},"extra":{},"type":5},"CN_GUDO_SZ0031":{"id":"CN_GUDO_SZ0031","code":"SZ0031","locator":"CN_GUDO_SZ","body":{"height":170,"birth":1995},"service":{"open":1,"hand":16},"charge":{},"character":{},"rating":{"t":1622187419018,"overall":85,"face":70,"shape":70,"service":70},"status":{"t":1622187419018,"flag":1},"location":{"nation":"CN","province":"GUDO","city":"SZ","district":"罗湖"},"feed":{"t":1622187419018},"secret":{"t":1622187419018},"extra":{},"type":1},"CN_GUDO_SZ0032":{"id":"CN_GUDO_SZ0032","code":"SZ0032","locator":"CN_GUDO_SZ","body":{"height":170,"birth":1990},"service":{},"charge":{},"character":{},"rating":{"t":1622187419018,"overall":85,"shape":70},"status":{"t":1622187419018,"flag":1},"location":{"nation":"CN","province":"GUDO","city":"SZ","district":"福田"},"feed":{"t":1622187419018},"secret":{"t":1622187419018},"extra":{},"type":1},"CN_GUDO_SZ0033":{"id":"CN_GUDO_SZ0033","code":"SZ0033","locator":"CN_GUDO_SZ","body":{"height":160,"birth":1995},"service":{"form":553648144,"pubis":65536},"charge":{},"character":{},"rating":{"t":1622187419018,"overall":70,"service":70},"status":{"t":1622187419018,"flag":1},"location":{"nation":"CN","province":"GUDO","city":"SZ","district":"福田,上下沙"},"feed":{"t":1622187419018},"secret":{"t":1622187419018},"extra":{},"type":1},"CN_GUDO_SZ0034":{"id":"CN_GUDO_SZ0034","code":"SZ0034","locator":"CN_GUDO_SZ","body":{"height":160,"birth":1990},"service":{"pubis":1048576,"form":8},"charge":{},"character":{},"rating":{"t":1622187419018,"overall":70,"shape":70,"service":70},"status":{"t":1622187419018,"flag":1},"location":{"nation":"CN","province":"GUDO","city":"SZ","district":"南山"},"feed":{"t":1622187419018},"secret":{"t":1622187419018},"extra":{},"type":1},"CN_GUDO_SZ0035":{"id":"CN_GUDO_SZ0035","code":"SZ0035","locator":"CN_GUDO_SZ","body":{"height":160,"birth":"1997","cosmetic":0,"weight":"56","chest":"25"},"service":{"open":768,"mouth":45507,"hand":104,"body":16,"pubis":0,"tool":23,"form":0},"charge":{"hour120":"1888"},"character":{"flag":128},"rating":{"t":1622187419018,"overall":"90","face":"83","shape":"85","service":"90"},"status":{"t":1622187419018,"flag":128},"location":{"nation":"CN","province":"GUDO","city":"SZ","district":"南山"},"feed":{"t":1622187419018},"secret":{"t":1622187419018},"extra":{},"type":1,"name":"DD","t_rest":1639309555000},"CN_GUDO_SZ0036":{"id":"CN_GUDO_SZ0036","code":"SZ0036","locator":"CN_GUDO_SZ","body":{"height":"157","birth":"1987","cosmetic":0,"weight":"43","chest":"25"},"service":{"pubis":65536,"form":8,"open":768,"mouth":37123,"hand":64,"body":16,"tool":0},"charge":{},"character":{"flag":0},"rating":{"t":1622187419018,"overall":70,"character":70,"service":"85"},"status":{"t":1622187419018,"flag":1},"location":{"nation":"CN","province":"GUDO","city":"SZ","district":"龙华"},"feed":{"t":1622187419018},"secret":{"t":1622187419018},"extra":{},"type":1},"CN_GUDO_SZ8501":{"id":"CN_GUDO_SZ8501","code":"SZ8501","locator":"CN_GUDO_SZ","body":{"birth":2000},"service":{},"charge":{},"character":{},"rating":{"t":1622187419018},"status":{"t":1622187419018,"flag":1},"location":{"nation":"CN","province":"GUDO","city":"SZ","district":"宝安,沙井,不定区"},"feed":{"t":1622187419018},"secret":{"t":1622187419018},"extra":{},"type":48},"CN_GUDO_SZ8502":{"id":"CN_GUDO_SZ8502","code":"SZ8502","locator":"CN_GUDO_SZ","body":{"birth":2000},"service":{},"charge":{},"character":{},"rating":{"t":1622187419018},"status":{"t":1622187419018,"flag":1},"location":{"nation":"CN","province":"GUDO","city":"SZ","district":"宝安,沙井,龙华,不定区"},"feed":{"t":1622187419018},"secret":{"t":1622187419018},"extra":{},"type":48},"CN_GUDO_SZ8503":{"id":"CN_GUDO_SZ8503","code":"SZ8503","locator":"CN_GUDO_SZ","body":{"birth":2000},"service":{},"charge":{},"character":{},"rating":{"t":1622187419018,"overall":70},"status":{"t":1622187419018,"flag":1},"location":{"nation":"CN","province":"GUDO","city":"SZ","district":"福田,罗湖"},"feed":{"t":1622187419018},"secret":{"t":1622187419018},"extra":{},"type":48},"CN_GUDO_SZ9201":{"id":"CN_GUDO_SZ9201","code":"SZ9201","locator":"CN_GUDO_SZ","body":{"birth":2000},"service":{"hand":1},"charge":{},"character":{},"rating":{"t":1622187419018,"face":70,"massage":70},"status":{"t":1622187419018,"flag":1},"location":{"nation":"CN","province":"GUDO","city":"SZ","district":"罗湖"},"feed":{"t":1622187419018},"secret":{"t":1622187419018},"extra":{},"type":256},"CN_GUDO_SZ0009":{"id":"CN_GUDO_SZ0009","code":"SZ0009","locator":"CN_GUDO_SZ","body":{"birth":1995},"service":{},"charge":{},"character":{},"rating":{"t":1622187419018,"overall":70,"face":70},"status":{"t":1622187419018},"location":{"nation":"CN","province":"GUDO","city":"SZ","district":"福田"},"feed":{"t":1622187419018},"secret":{"t":1622187419018},"extra":{},"type":1},"CN_GUDO_SZ0008":{"id":"CN_GUDO_SZ0008","code":"SZ0008","locator":"CN_GUDO_SZ","body":{"birth":2000},"service":{},"charge":{},"character":{},"rating":{"t":1622187419018},"status":{"t":1622187419018},"location":{"nation":"CN","province":"GUDO","city":"SZ","district":"罗湖"},"feed":{"t":1622187419018},"secret":{"t":1622187419018},"extra":{},"type":17},"CN_GUDO_SZ8001":{"id":"CN_GUDO_SZ8001","code":"SZ8001","locator":"CN_GUDO_SZ","body":{"birth":1995},"service":{},"charge":{},"character":{},"rating":{"t":1622187419018},"status":{"t":1622187419018},"location":{"nation":"CN","province":"GUDO","city":"SZ","district":"南山"},"feed":{"t":1622187419018},"secret":{"t":1622187419018},"extra":{},"type":48},"CN_GUDO_SZ0006":{"id":"CN_GUDO_SZ0006","code":"SZ0006","locator":"CN_GUDO_SZ","body":{},"service":{},"charge":{},"character":{},"rating":{"t":1622187419018,"face":70},"status":{"t":1622187419018},"location":{"nation":"CN","province":"GUDO","city":"SZ","district":"不定区"},"feed":{"t":1622187419018},"secret":{"t":1622187419018},"extra":{},"type":1},"CN_GUDO_SZ0020":{"id":"CN_GUDO_SZ0020","code":"SZ0020","locator":"CN_GUDO_SZ","body":{"birth":1990},"service":{},"charge":{},"character":{},"rating":{"t":1622187419018,"service":70},"status":{"t":1622187419018},"location":{"nation":"CN","province":"GUDO","city":"SZ","district":"罗湖"},"feed":{"t":1622187419018},"secret":{"t":1622187419018},"extra":{},"type":1},"CN_GUDO_SZ0011":{"id":"CN_GUDO_SZ0011","code":"SZ0011","locator":"CN_GUDO_SZ","body":{"birth":1995},"service":{},"charge":{},"character":{},"rating":{"t":1622187419018},"status":{"t":1622187419018},"location":{"nation":"CN","province":"GUDO","city":"SZ","district":"龙华"},"feed":{"t":1622187419018},"secret":{"t":1622187419018},"extra":{},"type":1},"CN_GUDO_SZ0037":{"id":"CN_GUDO_SZ0037","code":"SZ0037","locator":"CN_GUDO_SZ","location":{"nation":"CN","province":"GUDO","city":"SZ","district":"罗湖"},"body":{"cosmetic":0,"birth":"1998","height":"160","weight":"48","chest":"25"},"status":{"flag":1048589,"t":1622354721017},"service":{"open":272,"mouth":12435,"hand":115,"body":304,"pubis":2,"tool":7,"form":0},"charge":{"h2":"400"},"character":{"flag":0},"rating":{"t":1622354721017,"face":"90","shape":"90","service":"80","overall":"80"},"feed":{"t":1622354721017},"extra":{},"secret":{},"t":1622354721000,"type":0,"name":"UU","desc":"全套和妹谈"},"CN_GUDO_SZ0666":{"id":"CN_GUDO_SZ0666","code":"SZ0666","locator":"CN_GUDO_SZ","location":{"nation":"CN","province":"GUDO","city":"SZ","area":"","sub":"twitter","district":""},"body":{"cosmetic":128,"height":"170","weight":"48","chest":"50","birth":"2002"},"status":{"flag":1025,"t":1639309422058},"service":{"open":800,"tool":65597,"pubis":6356993,"body":192,"hand":64,"mouth":101426,"form":123731968},"charge":{"g1":"666","night1":"999"},"character":{"flag":3866608},"rating":{"t":1639309422058,"overall":"100","face":"100","service":"100","massage":"","slutty":"100","shape":"100","attitude":"100","body":"100","young":"100"},"feed":{"t":1639309422058},"extra":{},"secret":{},"t":1639136622000,"type":16384,"name":"女神"}}