{"CN_GUDO_MO0028":{"id":"CN_GUDO_MO0028","code":"MO0028","locator":"CN_GUDO_MO","body":{"height":160,"cosmetic":0},"service":{"open":0,"mouth":19,"hand":0,"body":0,"pubis":1,"tool":0,"form":0},"charge":{"x1":"400"},"character":{"type":32,"flag":0},"rating":{"t":1622187531573,"overall":"80","shape":70,"slutty":70,"character":70},"status":{"t":1622187531573,"flag":1024},"location":{"nation":"CN","province":"GUDO","city":"MO","district":"酒店,利澳,泰国"},"feed":{"t":1622187531573},"secret":{"t":1622187531573},"extra":{},"type":1,"t":1620363420000},"CN_GUDO_MO0023":{"id":"CN_GUDO_MO0023","code":"MO0023","locator":"CN_GUDO_MO","body":{"chest":20,"height":155,"birth":1995},"service":{},"charge":{},"character":{},"rating":{"t":1622187531573,"overall":85,"face":70,"shape":70,"service":70},"status":{"t":1622187531573},"location":{"nation":"CN","province":"GUDO","city":"MO","district":"利澳"},"feed":{"t":1622187531573},"secret":{"t":1622187531573},"extra":{},"type":1},"CN_GUDO_MO0026":{"id":"CN_GUDO_MO0026","code":"MO0026","locator":"CN_GUDO_MO","body":{"birth":"","chest":"30","height":"158","weight":"45"},"service":{"open":256,"pubis":1,"body":4,"hand":64,"mouth":16},"charge":{"x1":"500"},"character":{},"rating":{"t":1622187531573,"overall":"","shape":""},"status":{"t":1622187531573,"flag":1024},"location":{"nation":"CN","province":"GUDO","city":"MO","district":"酒店"},"feed":{"t":1622187531573},"secret":{"t":1622187531573},"extra":{},"type":1,"t":1663751461000},"CN_GUDO_MO0027":{"id":"CN_GUDO_MO0027","code":"MO0027","locator":"CN_GUDO_MO","body":{"height":155,"birth":1995,"chest":"20","weight":"43"},"service":{"mouth":4304,"body":20,"pubis":1,"hand":96},"charge":{"x1":"400"},"character":{},"rating":{"t":1622187531573,"overall":"83","face":"80","service":"83","character":"80","attitude":"83"},"status":{"t":1622187531573,"flag":128},"location":{"nation":"CN","province":"GUDO","city":"MO","district":"酒店,皇都"},"feed":{"t":1622187531573},"secret":{"t":1622187531573},"extra":{},"type":1,"t":1630926548000},"CN_GUDO_MO0029":{"id":"CN_GUDO_MO0029","code":"MO0029","locator":"CN_GUDO_MO","body":{"chest":20,"height":"158","birth":"1997","cosmetic":0,"weight":"43"},"service":{"open":256,"mouth":37008,"hand":64,"body":20,"pubis":1,"tool":0,"form":0},"charge":{"x1":"400"},"character":{"type":32,"flag":160},"rating":{"t":1622187531573,"overall":"90","face":"83","service":"85","slutty":"90","character":"80","attitude":"88"},"status":{"t":1622187531573,"flag":128},"location":{"nation":"CN","province":"GUDO","city":"MO","district":"酒店,利澳"},"feed":{"t":1622187531573},"secret":{"t":1622187531573},"extra":{},"type":1,"t":1634811747000,"t_rest":1623497815000,"desc":"一个床上有点骚的妹，身体敏感"},"CN_GUDO_MO0030":{"id":"CN_GUDO_MO0030","code":"MO0030","locator":"CN_GUDO_MO","body":{"chest":10,"height":165,"birth":1995},"service":{},"charge":{},"character":{"type":32},"rating":{"t":1622187531573,"overall":85,"face":70,"shape":70,"service":70,"slutty":70,"character":70},"status":{"t":1622187531573},"location":{"nation":"CN","province":"GUDO","city":"MO","district":"酒店,皇都"},"feed":{"t":1622187531573},"secret":{"t":1622187531573},"extra":{},"type":1},"CN_GUDO_MO0031":{"id":"CN_GUDO_MO0031","code":"MO0031","locator":"CN_GUDO_MO","body":{"chest":20,"height":160,"birth":1990},"service":{},"charge":{},"character":{"type":32},"rating":{"t":1622187531573,"overall":85,"face":70,"shape":70,"slutty":70,"character":70},"status":{"t":1622187531573,"flag":128},"location":{"nation":"CN","province":"GUDO","city":"MO","district":"酒店,利澳"},"feed":{"t":1622187531573},"secret":{"t":1622187531573},"extra":{},"type":1},"CN_GUDO_MO0032":{"id":"CN_GUDO_MO0032","code":"MO0032","locator":"CN_GUDO_MO","body":{"chest":30,"height":"157","birth":"1997","weight":"43"},"service":{"pubis":1,"body":84,"hand":96,"mouth":16,"open":256},"charge":{"x1":"450"},"character":{},"rating":{"t":1622187531573,"overall":"88","face":"88","shape":"85","service":"","attitude":"85"},"status":{"t":1622187531573,"flag":128},"location":{"nation":"CN","province":"GUDO","city":"MO","district":"酒店,利澳"},"feed":{"t":1622187531573},"secret":{"t":1622187531573},"extra":{},"type":1,"t":1639050470000,"name":"毛毛","desc":"吹功不错，颜值不错，娇小","t_rest":1639648275000},"CN_GUDO_MO0033":{"id":"CN_GUDO_MO0033","code":"MO0033","locator":"CN_GUDO_MO","body":{"chest":"25","height":"158","birth":"1993","weight":"45"},"service":{"open":256,"pubis":1,"body":84,"hand":104,"mouth":16},"charge":{"x1":"400"},"character":{"type":32},"rating":{"t":1622187531573,"overall":85,"face":"83","shape":"85","service":"83","slutty":"85","character":"80"},"status":{"t":1622187531573,"flag":32},"location":{"nation":"CN","province":"GUDO","city":"MO","district":"司打口,住家","street":"在住家"},"feed":{"t":1622187531573},"secret":{"t":1622187531573},"extra":{},"type":1,"t":1641191893000,"desc":"不错的妹，除了她堅持不在酒店外，其他都很好","t_rest":1641982466000},"CN_GUDO_MO0034":{"id":"CN_GUDO_MO0034","code":"MO0034","locator":"CN_GUDO_MO","body":{"chest":30,"height":160,"birth":1995},"service":{},"charge":{},"character":{},"rating":{"t":1622187531573,"overall":70,"face":70,"shape":70,"character":70},"status":{"t":1622187531573},"location":{"nation":"CN","province":"GUDO","city":"MO","district":"酒店,皇都"},"feed":{"t":1622187531573},"secret":{"t":1622187531573},"extra":{},"type":1},"CN_GUDO_MO0035":{"id":"CN_GUDO_MO0035","code":"MO0035","locator":"CN_GUDO_MO","body":{"chest":30,"height":165,"birth":"1997","cosmetic":240},"service":{"open":256,"mouth":16,"body":4,"pubis":1},"charge":{"x1":"","n1":"500"},"character":{"type":32},"rating":{"t":1622187531573,"overall":"90","face":"85","shape":"90","slutty":"","character":70},"status":{"t":1622187531573,"flag":128},"location":{"nation":"CN","province":"GUDO","city":"MO","district":"皇家金堡,酒店"},"feed":{"t":1622187531573},"secret":{"t":1622187531573},"extra":{},"type":1,"desc":"身材极度好的妹，水蛇腰，人好看\n肤白且滑富有弹性，吹功不错\n床上反应很好，少有的好妹，推荐！","t":1630927685000},"CN_GUDO_MO0036":{"id":"CN_GUDO_MO0036","code":"MO0036","locator":"CN_GUDO_MO","body":{"chest":20,"height":160,"birth":1995,"cosmetic":0},"service":{"open":1,"hand":17,"mouth":0,"body":0,"pubis":0,"tool":0,"form":0},"charge":{},"character":{"flag":0},"rating":{"t":1622187531573,"overall":70,"face":70,"shape":70,"massage":70},"status":{"t":1622187531573,"flag":128},"location":{"nation":"CN","province":"GUDO","city":"MO","district":"利澳"},"feed":{"t":1622187531573},"secret":{"t":1622187531573},"extra":{},"type":1},"CN_GUDO_MO0037":{"id":"CN_GUDO_MO0037","code":"MO0037","locator":"CN_GUDO_MO","body":{"chest":30,"height":160,"birth":1995,"cosmetic":0},"service":{"open":1,"hand":17,"mouth":0,"body":0,"pubis":0,"tool":0,"form":0},"charge":{},"character":{"flag":0},"rating":{"t":1622187531573,"overall":70,"face":70,"shape":70,"massage":70},"status":{"t":1622187531573,"flag":128},"location":{"nation":"CN","province":"GUDO","city":"MO","district":"利澳"},"feed":{"t":1622187531573},"secret":{"t":1622187531573},"extra":{},"type":1},"CN_GUDO_MO0038":{"id":"CN_GUDO_MO0038","code":"MO0038","locator":"CN_GUDO_MO","body":{"chest":"18","height":"159","birth":"1998","cosmetic":0,"weight":"43"},"service":{"open":256,"mouth":16,"hand":104,"body":20,"pubis":1,"tool":0,"form":0},"charge":{"x1":"400"},"character":{"flag":384},"rating":{"t":1622187531573,"overall":"85","face":"","shape":"","character":"","attitude":"85"},"status":{"t":1622187531573,"flag":128},"location":{"nation":"CN","province":"GUDO","city":"MO","district":"利澳"},"feed":{"t":1622187531573},"secret":{"t":1622187531573},"extra":{},"type":1,"name":"蒙蒙","t":1637740507000,"t_rest":1623325049000},"CN_GUDO_MO0039":{"id":"CN_GUDO_MO0039","code":"MO0039","locator":"CN_GUDO_MO","body":{"chest":30,"height":160,"birth":1995,"cosmetic":0},"service":{"open":32,"mouth":256,"hand":0,"body":0,"pubis":0,"tool":0,"form":0},"charge":{},"character":{"flag":0},"rating":{"t":1622187531573,"overall":70,"character":70},"status":{"t":1622187531573,"flag":128},"location":{"nation":"CN","province":"GUDO","city":"MO","district":"利澳"},"feed":{"t":1622187531573},"secret":{"t":1622187531573},"extra":{},"type":1},"CN_GUDO_MO0040":{"id":"CN_GUDO_MO0040","code":"MO0040","locator":"CN_GUDO_MO","body":{"chest":40,"height":160,"birth":1995,"cosmetic":0},"service":{"mouth":1,"open":0,"hand":0,"body":0,"pubis":0,"tool":0,"form":0},"charge":{},"character":{"flag":0},"rating":{"t":1622187531573,"overall":85,"face":70,"shape":70},"status":{"t":1622187531573,"flag":128},"location":{"nation":"CN","province":"GUDO","city":"MO","district":"皇都"},"feed":{"t":1622187531573},"secret":{"t":1622187531573},"extra":{},"type":1},"CN_GUDO_MO0050":{"id":"CN_GUDO_MO0050","code":"MO0050","locator":"CN_GUDO_MO","location":{"nation":"CN","province":"GUDO","city":"MO","district":"利澳,酒店"},"body":{"cosmetic":64,"height":"162","weight":"50","chest":"30","birth":"1993"},"status":{"flag":32,"t":1623005243502},"service":{"open":512,"mouth":4307,"hand":64,"body":68,"pubis":1,"tool":0,"form":0},"charge":{"g1":"400"},"character":{"flag":176},"rating":{"t":1623005243502,"overall":"90","face":"80","service":"90","attitude":"95","character":"95","shape":"85"},"feed":{"t":1623005243502},"extra":{},"secret":{},"t":1641798224000,"type":1,"name":"草草","t_rest":1643018901000},"CN_GUDO_MO0048":{"id":"CN_GUDO_MO0048","code":"MO0048","locator":"CN_GUDO_MO","location":{"nation":"CN","province":"GUDO","city":"MO","district":"皇都"},"body":{"cosmetic":0,"birth":"1998","height":"163","weight":"50","chest":"20"},"status":{"flag":128,"t":1623005299173},"service":{"open":256,"mouth":16,"hand":64,"body":4,"pubis":1,"tool":0,"form":0},"charge":{"x1":"400"},"character":{"flag":0},"rating":{"t":1623005299173,"overall":"80","face":"85","attitude":""},"feed":{"t":1623005299173},"extra":{},"secret":{},"t":1623005299000,"type":1},"CN_GUDO_MO0045":{"id":"CN_GUDO_MO0045","code":"MO0045","locator":"CN_GUDO_MO","location":{"nation":"CN","province":"GUDO","city":"MO","district":"利澳,酒店"},"body":{"cosmetic":5,"birth":"1997","height":"170","weight":"52","chest":"35"},"status":{"flag":128,"t":1623005918195},"service":{"open":256,"mouth":50,"hand":64,"body":20,"pubis":1,"tool":0,"form":0},"charge":{"x1":"500","currency":""},"character":{"flag":18608},"rating":{"t":1623005918195,"overall":"85","face":"80","body":"80","shape":"80","slutty":"85","cooperative":"85"},"feed":{"t":1623005918195},"extra":{},"secret":{},"t":1625716196000,"type":1,"name":"Kin","desc":"骚浪型高妹，不穿高跟也有 170","t_rest":1630926552000},"CN_GUDO_MO0047":{"id":"CN_GUDO_MO0047","code":"MO0047","locator":"CN_GUDO_MO","location":{"nation":"CN","province":"GUDO","city":"MO","district":"利澳,酒店"},"body":{"birth":"1998","chest":"35","weight":"50","height":"160"},"status":{"flag":32,"t":1623661146209},"service":{"open":256,"body":116,"pubis":1,"mouth":4240,"hand":96},"charge":{"x1":"400"},"character":{"flag":16512},"rating":{"t":1623661146209,"overall":"85","face":"83","service":"85","attitude":"85","body":"90","shape":"88"},"feed":{"t":1623661146209},"extra":{},"secret":{},"t":1641969135000,"type":1,"t_rest":1643018889000},"CN_GUDO_MO7001":{"id":"CN_GUDO_MO7001","code":"MO7001","locator":"CN_GUDO_MO","location":{"nation":"CN","province":"GUDO","city":"MO","district":"关口","street":"祐汉"},"body":{"birth":"1990"},"status":{"flag":1024,"t":1623739380952},"service":{"pubis":1},"charge":{"n1":"150","x1":"200"},"character":{},"rating":{"t":1623739380952},"feed":{"t":1623739380952},"extra":{},"secret":{},"t":1623739380000,"name":"关口附近站街","type":2,"desc":"服务就直接做，快餐。妹 90 后 80 后吧，有时有 95 后。吹有的加钱。环境很一般。时间一般下午到晚上"},"CN_GUDO_MO0046":{"id":"CN_GUDO_MO0046","code":"MO0046","locator":"CN_GUDO_MO","location":{"nation":"CN","province":"GUDO","city":"MO","area":"","sub":"twitter","district":"置地,酒店"},"body":{"height":"158","weight":"45","chest":"25","birth":"1995"},"status":{"flag":128,"t":1624617752036},"service":{"body":84,"pubis":1,"mouth":37313,"hand":64,"open":512},"charge":{"x1":"","g1":"400"},"character":{"flag":49184},"rating":{"t":1624617752036,"overall":"85","service":"85","attitude":"88","slutty":"90","face":"78"},"feed":{"t":1624617752036},"extra":{},"secret":{},"t":1624617752036,"type":1,"name":"喬喬","desc":"骚浪的妹妹","t_rest":1625716271000},"CN_GUDO_MO0052":{"id":"CN_GUDO_MO0052","code":"MO0052","locator":"CN_GUDO_MO","location":{"nation":"CN","province":"GUDO","city":"MO","area":"","sub":"twitter","district":"维多利亚,酒店","street":""},"body":{"birth":"1998","height":"158","weight":"45","chest":"25"},"status":{"flag":128,"t":1630926631758},"service":{"open":256,"hand":97,"pubis":1,"body":84,"mouth":16},"charge":{"x1":"400"},"character":{"flag":32896},"rating":{"t":1630926631758,"overall":"85","massage":"90","service":"85","face":"80","attitude":"85"},"feed":{"t":1630926631758},"extra":{},"secret":{},"t":1630926631758,"name":"睡睡","type":1,"desc":"按摩很好，态度很好"},"CN_GUDO_MO0055":{"id":"CN_GUDO_MO0055","code":"MO0055","locator":"CN_GUDO_MO","location":{"nation":"CN","province":"GUDO","city":"MO","area":"","sub":"twitter","district":"利澳,酒店"},"body":{"weight":"53","height":"160","chest":"50","birth":"1998"},"status":{"flag":128,"t":1631678820524},"service":{"open":256,"hand":104,"body":4,"pubis":4194305,"mouth":16},"charge":{"x1":"520"},"character":{"flag":240},"rating":{"t":1631678820524,"overall":"88","attitude":"88","shape":"90","face":"85"},"feed":{"t":1631678820524},"extra":{},"secret":{},"t":1637634968000,"type":1,"desc":"真正的大胸妹，有真 E，身材好，床上骚"},"CN_GUDO_MO0051":{"id":"CN_GUDO_MO0051","code":"MO0051","locator":"CN_GUDO_MO","location":{"nation":"CN","province":"GUDO","city":"MO","area":"","sub":"twitter","district":"利澳,酒店,越南","street":""},"body":{"height":"160","weight":"50","chest":"30","birth":"1996"},"status":{"flag":1024,"t":1631680727897},"service":{"hand":64,"pubis":1,"body":4,"open":256,"mouth":16},"charge":{"x1":"500"},"character":{},"rating":{"t":1631680727897,"overall":"80"},"feed":{"t":1631680727897},"extra":{},"secret":{},"t":1631680727897,"name":"Candy","type":1,"desc":"越南妹妹"},"CN_GUDO_MO0053":{"id":"CN_GUDO_MO0053","code":"MO0053","locator":"CN_GUDO_MO","location":{"nation":"CN","province":"GUDO","city":"MO","area":"","sub":"twitter","district":"利澳,酒店,越南"},"body":{"birth":"1995","height":"160","weight":"51","chest":"30"},"status":{"flag":1024,"t":1631681996116},"service":{"open":256,"hand":64,"mouth":16,"pubis":1,"body":4},"charge":{"x1":"500"},"character":{},"rating":{"t":1631681996116,"overall":"78"},"feed":{"t":1631681996116},"extra":{},"secret":{},"t":1631681996116,"name":"Alisa","type":1},"CN_GUDO_MO0056":{"id":"CN_GUDO_MO0056","code":"MO0056","locator":"CN_GUDO_MO","location":{"nation":"CN","province":"GUDO","city":"MO","area":"","sub":"twitter","district":"利澳,酒店"},"body":{"height":"160","weight":"50","chest":"35","birth":"1995"},"status":{"flag":1664,"t":1635600993165},"service":{"open":256,"hand":104,"pubis":1,"mouth":4112,"body":16},"charge":{"x1":"450"},"character":{"flag":16528},"rating":{"t":1635600993165,"overall":"85","shape":"85","service":"85","attitude":"85","character":"85","face":"83"},"feed":{"t":1635600993165},"extra":{},"secret":{},"t":1635600993165,"desc":"","name":"优优"},"CN_GUDO_MO0062":{"id":"CN_GUDO_MO0062","code":"MO0062","locator":"CN_GUDO_MO","location":{"nation":"CN","province":"GUDO","city":"MO","area":"","sub":"twitter","district":"酒店,利澳"},"body":{"height":"160","weight":"48","chest":"25","birth":"1995"},"status":{"flag":128,"t":1637314592955},"service":{"open":256,"hand":96,"pubis":1,"mouth":16,"body":64},"charge":{"currency":"","x1":"450"},"character":{},"rating":{"t":1637314592955,"overall":"80","face":"","shape":""},"feed":{"t":1637314592955},"extra":{},"secret":{},"t":1637315670000,"type":1,"name":"琪琪","desc":"做医美的妹子，间中兼职"},"CN_GUDO_MO0061":{"id":"CN_GUDO_MO0061","code":"MO0061","locator":"CN_GUDO_MO","location":{"nation":"CN","province":"GUDO","city":"MO","area":"","sub":"twitter","district":"酒店"},"body":{"height":"170","weight":"50","chest":"20","birth":"1998"},"status":{"flag":128,"t":1637315327001},"service":{"open":256,"hand":96,"pubis":1,"body":68,"mouth":16},"charge":{"x1":"700"},"character":{},"rating":{"t":1637315327001,"shape":"85","face":"85","overall":"85","attitude":"85"},"feed":{"t":1637315327001},"extra":{},"secret":{},"t":1637315327001,"name":"雨雨","type":5,"desc":"兼职妹子，平时在深圳"},"CN_GUDO_MO0063":{"id":"CN_GUDO_MO0063","code":"MO0063","locator":"CN_GUDO_MO","location":{"nation":"CN","province":"GUDO","city":"MO","area":"","sub":"twitter","district":"酒店"},"body":{"birth":"1998","height":"160","weight":"47","chest":"20"},"status":{"flag":128,"t":1637554144121},"service":{"open":1,"pubis":0,"hand":97,"body":64},"charge":{"h1":"250"},"character":{},"rating":{"t":1637554144121},"feed":{"t":1637554144121},"extra":{},"secret":{},"t":1637554144121,"type":1},"CN_GUDO_MO0065":{"id":"CN_GUDO_MO0065","code":"MO0065","locator":"CN_GUDO_MO","location":{"nation":"CN","province":"GUDO","city":"MO","area":"","sub":"twitter","district":"利澳,酒店"},"body":{"height":"160","weight":"52","chest":"40","birth":"1996"},"status":{"flag":128,"t":1637636764520},"service":{"open":256,"pubis":1,"hand":96,"mouth":16,"body":84},"charge":{"x1":"500"},"character":{"flag":24752},"rating":{"t":1637636764520,"overall":"90","attitude":"90","service":"88","character":"","slutty":"90","shape":"85","face":"83"},"feed":{"t":1637636764520},"extra":{},"secret":{},"t":1637636764520,"name":"夏夏","desc":"骚骚的妹，很多水，口技好，反应好，易高潮"},"CN_GUDO_MO0064":{"id":"CN_GUDO_MO0064","code":"MO0064","locator":"CN_GUDO_MO","location":{"nation":"CN","province":"GUDO","city":"MO","area":"","sub":"twitter","district":"酒店,皇家金堡"},"body":{"chest":"20","height":"161","weight":"50","birth":"1996"},"status":{"flag":128,"t":1637741376629},"service":{"open":256,"pubis":1,"body":84,"hand":104,"mouth":33072},"charge":{"x1":"450"},"character":{},"rating":{"t":1637741376629},"feed":{"t":1637741376629},"extra":{},"secret":{},"t":1637741376629,"name":"饼干"},"CN_GUDO_MO0069":{"id":"CN_GUDO_MO0069","code":"MO0069","locator":"CN_GUDO_MO","location":{"nation":"CN","province":"GUDO","city":"MO","area":"","sub":"twitter","district":"酒店,财神","street":""},"body":{"height":"165","weight":"45","chest":"30","birth":"1998","cosmetic":112},"status":{"flag":128,"t":1637850166311},"service":{"open":256,"mouth":16,"pubis":1,"hand":64},"charge":{"n1":"400"},"character":{"flag":16512},"rating":{"t":1637850166311,"shape":"88","face":"85","attitude":"85","overall":"85"},"feed":{"t":1637850166311},"extra":{},"secret":{},"t":1637930580000,"type":1,"name":"爱爱","desc":"身材很好，很配合，服务就洗吹做，骚气","t_rest":1638181730000},"CN_GUDO_MO0070":{"id":"CN_GUDO_MO0070","code":"MO0070","locator":"CN_GUDO_MO","location":{"nation":"CN","province":"GUDO","city":"MO","area":"","sub":"twitter","district":"利澳,酒店"},"body":{"height":"160","weight":"45","chest":"30","birth":"1998","cosmetic":80},"status":{"flag":32,"t":1637925324810},"service":{"open":256,"hand":72,"pubis":1,"body":84,"mouth":16},"charge":{"x1":"450"},"character":{"flag":2097600},"rating":{"t":1637925324810,"overall":"88","face":"85","shape":"85","attitude":"88","service":"85"},"feed":{"t":1637925324810},"extra":{},"secret":{},"t":1647240556000,"type":1,"name":"倩倩","desc":"一个颜值不错但不会拍照的妹，声音挺可爱，床上配合","t_rest":1648970279000},"CN_GUDO_MO0067":{"id":"CN_GUDO_MO0067","code":"MO0067","locator":"CN_GUDO_MO","location":{"nation":"CN","province":"GUDO","city":"MO","area":"","sub":"twitter","district":"皇都,酒店"},"body":{"height":"160","weight":"46","chest":"25","birth":"1996"},"status":{"flag":32,"t":1637929718268},"service":{"hand":96,"pubis":1,"body":84,"open":256,"mouth":16},"charge":{"x1":"450"},"character":{},"rating":{"t":1637929718268,"overall":"85","shape":"88","face":"85","attitude":"85"},"feed":{"t":1637929718268},"extra":{},"secret":{},"t":1639648313000,"name":"密密","desc":"混血儿面孔的妹妹，身材不错","t_rest":1640665736000},"CN_GUDO_MO0066":{"id":"CN_GUDO_MO0066","code":"MO0066","locator":"CN_GUDO_MO","location":{"nation":"CN","province":"GUDO","city":"MO","area":"","sub":"twitter","district":"置地,酒店"},"body":{"height":"155","weight":"45","chest":"30","birth":"1996"},"status":{"flag":32,"t":1638016027635},"service":{"open":256,"hand":104,"pubis":1,"mouth":37680,"body":84,"tool":6},"charge":{"x1":"400"},"character":{"flag":4544},"rating":{"t":1638016027635,"overall":"88","face":"85","shape":"85","attitude":"85","character":"85"},"feed":{"t":1638016027635},"extra":{},"secret":{},"t":1643018923000,"name":"泰泰","type":1,"desc":"少数民族妹妹，娇小型，真胸有 C，挺可爱的","t_rest":1643907987000},"CN_GUDO_MO0071":{"id":"CN_GUDO_MO0071","code":"MO0071","locator":"CN_GUDO_MO","location":{"nation":"CN","province":"GUDO","city":"MO","area":"","sub":"twitter","district":"利澳,酒店"},"body":{"height":"163","weight":"49","chest":"30"},"status":{"flag":128,"t":1638185590690},"service":{"open":256,"pubis":1,"hand":104,"body":84,"mouth":16},"charge":{"x1":"500"},"character":{},"rating":{"t":1638185590690,"overall":"83","face":"85","shape":"85"},"feed":{"t":1638185590690},"extra":{},"secret":{},"t":1638185590690,"t_rest":1638856436000},"CN_GUDO_MO0072":{"id":"CN_GUDO_MO0072","code":"MO0072","locator":"CN_GUDO_MO","location":{"nation":"CN","province":"GUDO","city":"MO","area":"","sub":"twitter","district":"酒店,利澳"},"body":{"cosmetic":4,"birth":"1995","height":"160","weight":"43","chest":"30"},"status":{"flag":32,"t":1638372065599},"service":{"open":256,"pubis":1,"hand":96,"body":84,"mouth":16},"charge":{"x1":"450"},"character":{},"rating":{"t":1638372065599,"overall":"85","attitude":"85","face":"83","shape":"83"},"feed":{"t":1638372065599},"extra":{},"secret":{},"t":1641969714000,"type":1,"desc":"声音娇娇嗲嗲，有台湾口音的妹子","name":"欣欣","t_rest":1643018884000},"CN_GUDO_MO0073":{"id":"CN_GUDO_MO0073","code":"MO0073","locator":"CN_GUDO_MO","location":{"nation":"CN","province":"GUDO","city":"MO","area":"","sub":"twitter","district":"住家,司打口"},"body":{"birth":"1995","height":"162","weight":"48","chest":"30"},"status":{"flag":128,"t":1638862277080},"service":{"pubis":1,"body":68,"hand":104,"mouth":4112,"open":256},"charge":{"x1":"400"},"character":{"flag":128},"rating":{"t":1638862277080,"overall":"85","shape":"83","service":"85","attitude":"85"},"feed":{"t":1638862277080},"extra":{},"secret":{},"t":1638862277080,"name":"雪雪","t_rest":1639388724000},"CN_GUDO_MO0075":{"id":"CN_GUDO_MO0075","code":"MO0075","locator":"CN_GUDO_MO","location":{"nation":"CN","province":"GUDO","city":"MO","area":"","sub":"twitter","district":"利澳,酒店"},"body":{"height":"160","weight":"46","chest":"20","birth":"2000"},"status":{"flag":128,"t":1639133326445},"service":{"hand":96,"pubis":1,"body":4,"mouth":16,"open":256},"charge":{"x1":"450"},"character":{"flag":2097152},"rating":{"t":1639133326445,"young":"90"},"feed":{"t":1639133326445},"extra":{},"secret":{},"t":1639133326445,"type":1,"name":"小薇","t_rest":1639973812000},"CN_GUDO_MO0074":{"id":"CN_GUDO_MO0074","code":"MO0074","locator":"CN_GUDO_MO","location":{"nation":"CN","province":"GUDO","city":"MO","area":"","sub":"twitter","district":"利澳,酒店"},"body":{"height":"160","chest":"35","birth":"1995"},"status":{"flag":128,"t":1639387215780},"service":{"pubis":1,"open":256,"hand":64,"mouth":144,"body":20},"charge":{"x1":"450"},"character":{},"rating":{"t":1639387215780},"feed":{"t":1639387215780},"extra":{},"secret":{},"t":1639387215780,"type":1,"name":"静儿","t_rest":1639973800000},"CN_GUDO_MO0077":{"id":"CN_GUDO_MO0077","code":"MO0077","locator":"CN_GUDO_MO","location":{"nation":"CN","province":"GUDO","city":"MO","area":"","sub":"twitter","district":"利澳,酒店"},"body":{"cosmetic":512,"height":"170","weight":"55","chest":"35","birth":"1998"},"status":{"flag":128,"t":1639636001806},"service":{"open":256,"pubis":1048577,"hand":64,"mouth":146,"form":65544,"body":4},"charge":{"x1":"1000"},"character":{"flag":32},"rating":{"t":1639636001806},"feed":{"t":1639636001806},"extra":{},"secret":{},"t":1639636001806,"type":1,"name":"沛沛","desc":"广东妹妹，高，小肉感，无套中出 + 500 MOP","t_rest":1640665737000},"CN_GUDO_MO0076":{"id":"CN_GUDO_MO0076","code":"MO0076","locator":"CN_GUDO_MO","location":{"nation":"CN","province":"GUDO","city":"MO","area":"","sub":"twitter","district":"利澳,酒店"},"body":{"height":"161","chest":"30","birth":"1995"},"status":{"flag":32,"t":1640666313317},"service":{"hand":96,"pubis":1,"mouth":16,"body":64,"open":256},"charge":{"x1":"450"},"character":{},"rating":{"t":1640666313317},"feed":{"t":1640666313317},"extra":{},"secret":{},"t":1640666313317,"t_rest":1643267642000},"CN_GUDO_MO0078":{"id":"CN_GUDO_MO0078","code":"MO0078","locator":"CN_GUDO_MO","location":{"nation":"CN","province":"GUDO","city":"MO","area":"","sub":"twitter","district":"利澳,酒店"},"body":{"birth":"1999","height":"160","weight":"43","chest":"20"},"status":{"flag":32,"t":1640689031808},"service":{"mouth":144,"open":256,"hand":96,"pubis":1,"body":4},"charge":{"x1":"800"},"character":{"flag":20608},"rating":{"t":1640689031808,"overall":"85","face":"83","shape":"85","slutty":"85","attitude":"88"},"feed":{"t":1640689031808},"extra":{},"secret":{},"t":1645947174000,"type":4097,"desc":"本人，大专大学刚刚毕业的妹妹，反应好，配合","t_rest":1648970282000},"CN_GUDO_MO0080":{"id":"CN_GUDO_MO0080","code":"MO0080","locator":"CN_GUDO_MO","location":{"nation":"CN","province":"GUDO","city":"MO","area":"","sub":"twitter","district":"皇都,酒店"},"body":{"cosmetic":17,"birth":"2000","chest":"25","weight":"43","height":"161"},"status":{"flag":32,"t":1641027545620},"service":{"open":256,"pubis":1,"body":4,"hand":64,"mouth":16},"charge":{"x1":"500"},"character":{"flag":2097152},"rating":{"t":1641027545620,"overall":"85","attitude":"85","shape":"85","face":"85"},"feed":{"t":1641027545620},"extra":{},"secret":{},"t":1645519884000,"type":4100,"desc":"在读大专大学生, 学生妹妹","t_rest":1641634862000},"CN_GUDO_MO0079":{"id":"CN_GUDO_MO0079","code":"MO0079","locator":"CN_GUDO_MO","location":{"nation":"CN","province":"GUDO","city":"MO","area":"","sub":"twitter","district":"利澳,酒店"},"body":{"birth":"1996","height":"160","chest":"40"},"status":{"flag":32,"t":1641201468513},"service":{"open":256,"hand":96,"pubis":1,"body":84,"mouth":144},"charge":{"x1":"450"},"character":{},"rating":{"t":1641201468513,"overall":"85","attitude":"85","shape":"85","service":"85"},"feed":{"t":1641201468513},"extra":{},"secret":{},"t":1641201468513,"name":"萍萍","desc":"大熊妹妹, 态度服务不错","t_rest":1641982462000},"CN_GUDO_MO0083":{"id":"CN_GUDO_MO0083","code":"MO0083","locator":"CN_GUDO_MO","location":{"nation":"CN","province":"GUDO","city":"MO","area":"","sub":"twitter","district":"利澳,酒店"},"body":{"height":"162","weight":"43","chest":"18","birth":"1997","cosmetic":16},"status":{"flag":128,"t":1641269011414},"service":{"open":256,"pubis":1,"hand":64,"mouth":16,"body":4},"charge":{"x1":"450"},"character":{"flag":16512},"rating":{"t":1641269011414,"overall":"85","face":"85","shape":"85","attitude":""},"feed":{"t":1641269011414},"extra":{},"secret":{},"t":1641293580000,"type":1,"name":"点点","t_rest":1641982447000},"CN_GUDO_MO0082":{"id":"CN_GUDO_MO0082","code":"MO0082","locator":"CN_GUDO_MO","location":{"nation":"CN","province":"GUDO","city":"MO","area":"","sub":"twitter","district":"利澳,酒店"},"body":{"birth":"1995","height":"160","chest":"35"},"status":{"flag":128,"t":1641293411304},"service":{"open":256,"pubis":1,"hand":96,"mouth":32784,"body":68},"charge":{"x1":"400"},"character":{},"rating":{"t":1641293411304,"overall":"85","shape":"85","attitude":"85","service":"85"},"feed":{"t":1641293411304},"extra":{},"secret":{},"t":1641293411304,"type":1,"desc":"朝鲜族妹妹，少数民族妹妹","t_rest":1641982469000},"CN_GUDO_MO0085":{"id":"CN_GUDO_MO0085","code":"MO0085","locator":"CN_GUDO_MO","location":{"nation":"CN","province":"GUDO","city":"MO","area":"","sub":"twitter","district":"利澳,酒店"},"body":{"height":"160","birth":"1996","weight":"48","chest":"40"},"status":{"flag":128,"t":1641626716790},"service":{"open":256,"pubis":1,"hand":96,"mouth":16,"body":68},"charge":{"x1":"500"},"character":{},"rating":{"t":1641626716790,"overall":"85","shape":"85","face":"85","attitude":"85"},"feed":{"t":1641626716790},"extra":{},"secret":{},"t":1641626716790,"type":1,"desc":"不时在珠海和澳门开课的妹"},"CN_GUDO_MO0358":{"id":"CN_GUDO_MO0358","code":"MO0358","locator":"CN_GUDO_MO","location":{"nation":"CN","province":"GUDO","city":"MO","area":"","sub":"twitter","district":"酒店","street":"金沙附近"},"body":{"height":"162","weight":"48","chest":"20","birth":"1998"},"status":{"flag":1024,"t":1641634606075},"service":{"open":256,"pubis":1,"hand":96,"mouth":16,"body":4},"charge":{"x1":"700"},"character":{},"rating":{"t":1641634606075,"overall":"83","shape":"85","face":"83"},"feed":{"t":1641634606075},"extra":{},"secret":{},"t":1652880674000,"type":1,"t_rest":1643018909000},"CN_GUDO_MO0616":{"id":"CN_GUDO_MO0616","code":"MO0616","locator":"CN_GUDO_MO","location":{"nation":"CN","province":"GUDO","city":"MO","area":"","sub":"twitter","district":"利澳,酒店"},"body":{"height":"160","chest":"40","weight":"48","birth":"1996"},"status":{"flag":1024,"t":1641634745958},"service":{"open":256,"hand":96,"pubis":1,"body":20,"mouth":16},"charge":{"x1":"500"},"character":{},"rating":{"t":1641634745958,"overall":"85","shape":"85","face":"85","attitude":"85"},"feed":{"t":1641634745958},"extra":{},"secret":{},"t":1663026722000,"desc":"即 ZH0616，不时在珠海和澳门开工的妹","t_rest":1663751528000,"type":1},"CN_GUDO_MO0360":{"id":"CN_GUDO_MO0360","code":"MO0360","locator":"CN_GUDO_MO","location":{"nation":"CN","province":"GUDO","city":"MO","area":"","sub":"twitter","district":"酒店","street":""},"body":{"height":"165","weight":"48","chest":"20","birth":"1998"},"status":{"flag":32,"t":1641636158545},"service":{"pubis":1,"body":4,"hand":96,"mouth":16},"charge":{"x1":"700"},"character":{},"rating":{"t":1641636158545,"overall":"80","shape":"85","face":"80"},"feed":{"t":1641636158545},"extra":{},"secret":{},"t":1641636158545,"type":1,"t_rest":1643018903000},"CN_GUDO_MO0090":{"id":"CN_GUDO_MO0090","code":"MO0090","locator":"CN_GUDO_MO","location":{"nation":"CN","province":"GUDO","city":"MO","area":"","sub":"twitter","district":"利澳,酒店"},"body":{"height":"159","weight":"48","chest":"35","cosmetic":268435456},"status":{"flag":32,"t":1641975586525},"service":{"open":768,"pubis":4194305,"hand":64,"body":84,"mouth":57360,"tool":16},"charge":{"n1":"350","x1":"600"},"character":{"flag":155680},"rating":{"t":1641975586525,"overall":"88","slutty":"95","service":"85","shape":"88"},"feed":{"t":1641975586525},"extra":{},"secret":{},"t":1641975586525,"desc":"骚浪少妇，非常的骚，M 女，HOLD 得住的哥们可以开发未公开技能。平时工作是跳舞，身材保持得非常好","type":1,"t_rest":1642158356000},"CN_GUDO_MO0081":{"id":"CN_GUDO_MO0081","code":"MO0081","locator":"CN_GUDO_MO","location":{"nation":"CN","province":"GUDO","city":"MO","area":"","sub":"twitter","district":"利澳,酒店"},"body":{"chest":"25","birth":"1998","weight":"43","height":"158","cosmetic":1},"status":{"flag":32,"t":1641982235841},"service":{"open":256,"pubis":1,"hand":96,"mouth":16,"body":20},"charge":{"x1":"400"},"character":{},"rating":{"t":1641982235841,"overall":"83","face":"85","shape":"85"},"feed":{"t":1641982235841},"extra":{},"secret":{},"t":1641982235841,"type":1,"name":"鱼鱼","t_rest":1643018881000},"CN_GUDO_MO0042":{"id":"CN_GUDO_MO0042","code":"MO0042","locator":"CN_GUDO_MO","location":{"nation":"CN","province":"GUDO","city":"MO","area":"","sub":"twitter","district":"利澳,酒店"},"body":{"height":"168","weight":"52","chest":"30"},"status":{"flag":32,"t":1642158145756},"service":{"open":256,"pubis":1,"body":84,"hand":64,"mouth":144},"charge":{"x1":"400"},"character":{"flag":16768},"rating":{"t":1642158145756,"overall":"85","shape":"85","attitude":"88","service":"85"},"feed":{"t":1642158145756},"extra":{},"secret":{},"t":1642158145756,"type":1,"desc":"高高的妹妹，性格直爽，配合","t_rest":1643018875000},"CN_GUDO_MO0084":{"id":"CN_GUDO_MO0084","code":"MO0084","locator":"CN_GUDO_MO","location":{"nation":"CN","province":"GUDO","city":"MO","area":"","sub":"twitter","district":"利澳,酒店"},"body":{"height":"160","weight":"47","chest":"20"},"status":{"flag":128,"t":1643278802160},"service":{"open":256,"pubis":1,"hand":96,"mouth":16,"body":20},"charge":{"x1":"350","x2":"450"},"character":{},"rating":{"t":1643278802160,"overall":"85","attitude":"88","character":"85","service":"88","shape":"83"},"feed":{"t":1643278802160},"extra":{},"secret":{},"t":1651490818000,"type":5,"desc":"白领OL兼职","t_rest":1651652507000},"CN_GUDO_MO0086":{"id":"CN_GUDO_MO0086","code":"MO0086","locator":"CN_GUDO_MO","location":{"nation":"CN","province":"GUDO","city":"MO","area":"","sub":"twitter","district":"利澳,酒店"},"body":{"height":"161","weight":"47","chest":"30"},"status":{"flag":32,"t":1643279309354},"service":{"open":256,"pubis":1,"body":84,"hand":104,"mouth":33680},"charge":{"x1":"450"},"character":{"flag":32},"rating":{"t":1643279309354},"feed":{"t":1643279309354},"extra":{},"secret":{},"t":1643279309354,"type":1,"t_rest":1643907980000},"CN_GUDO_MO0089":{"id":"CN_GUDO_MO0089","code":"MO0089","locator":"CN_GUDO_MO","location":{"nation":"CN","province":"GUDO","city":"MO","area":"","sub":"twitter","district":"利澳,酒店"},"body":{"height":"160","weight":"48","chest":"20"},"status":{"flag":32,"t":1643908214181},"service":{"pubis":1,"body":84,"hand":64,"open":256,"mouth":16},"charge":{"x1":"450"},"character":{},"rating":{"t":1643908214181},"feed":{"t":1643908214181},"extra":{},"secret":{},"t":1643908214181,"type":1,"t_rest":1648970294000},"CN_GUDO_MO0091":{"id":"CN_GUDO_MO0091","code":"MO0091","locator":"CN_GUDO_MO","location":{"nation":"CN","province":"GUDO","city":"MO","area":"","sub":"twitter","district":"利澳,酒店"},"body":{"height":"158","weight":"45","chest":"20"},"status":{"flag":32,"t":1643908402685},"service":{"open":512,"mouth":33680,"pubis":1,"body":84,"hand":104},"charge":{"x1":"400"},"character":{},"rating":{"t":1643908402685},"feed":{"t":1643908402685},"extra":{},"secret":{},"t":1643908402685,"t_rest":1648970288000},"CN_GUDO_MO0092":{"id":"CN_GUDO_MO0092","code":"MO0092","locator":"CN_GUDO_MO","location":{"nation":"CN","province":"GUDO","city":"MO","area":"","sub":"twitter","district":"利澳,酒店"},"body":{"height":"163","chest":"40"},"status":{"flag":32,"t":1643908695879},"service":{"open":256,"pubis":1,"hand":96,"mouth":32912,"body":4},"charge":{"x1":"400"},"character":{},"rating":{"t":1643908695879},"feed":{"t":1643908695879},"extra":{},"secret":{},"t":1643908695879,"type":1},"CN_GUDO_MO0088":{"id":"CN_GUDO_MO0088","code":"MO0088","locator":"CN_GUDO_MO","location":{"nation":"CN","province":"GUDO","city":"MO","area":"","sub":"twitter","district":"皇家金堡"},"body":{"height":"160","weight":"50","chest":"35","birth":"1997"},"status":{"flag":1024,"t":1651651593578},"service":{"hand":104,"pubis":1,"body":68,"mouth":0,"open":256},"charge":{"x1":"450"},"character":{"flag":18464},"rating":{"t":1651651593578,"overall":"85","face":"85","shape":"83","service":"85","attitude":"88"},"feed":{"t":1651651593578},"extra":{},"secret":{},"t":1663026710000,"name":"叶叶","type":1,"t_rest":1663751524000},"CN_GUDO_MO0098":{"id":"CN_GUDO_MO0098","code":"MO0098","locator":"CN_GUDO_MO","location":{"nation":"CN","province":"GUDO","city":"MO","area":"","sub":"twitter","district":"酒店,利澳"},"body":{"height":"163","birth":"1998","chest":"30","weight":"51"},"status":{"flag":524289,"t":1673248883460},"service":{"pubis":0,"body":64,"hand":115,"mouth":16,"open":1},"charge":{"x1":"","h1":"260"},"character":{"flag":2097152},"rating":{"t":1673248883460},"feed":{"t":1673248883460},"extra":{},"secret":{},"t":1674011946000,"name":"冰冰","type":1},"CN_GUDO_MO0099":{"id":"CN_GUDO_MO0099","code":"MO0099","locator":"CN_GUDO_MO","location":{"nation":"CN","province":"GUDO","city":"MO","area":"","sub":"twitter","district":"酒店"},"body":{"birth":"2000","height":"158","chest":"20"},"status":{"flag":9,"t":1673258463659},"service":{"open":1,"body":80,"hand":113,"mouth":4096},"charge":{"h1":"280"},"character":{},"rating":{"t":1673258463659},"feed":{"t":1673258463659},"extra":{},"secret":{},"t":1673258851000},"CN_GUDO_MO0100":{"id":"CN_GUDO_MO0100","code":"MO0100","locator":"CN_GUDO_MO","location":{"nation":"CN","province":"GUDO","city":"MO","area":"","sub":"twitter","district":"酒店"},"body":{"birth":"1999","height":"160","chest":"30"},"status":{"flag":1,"t":1673258856655},"service":{"pubis":1,"hand":72,"body":4,"mouth":16},"charge":{"x1":"400"},"character":{},"rating":{"t":1673258856655},"feed":{"t":1673258856655},"extra":{},"secret":{},"t":1673258856655,"type":1},"CN_GUDO_MO0101":{"id":"CN_GUDO_MO0101","code":"MO0101","locator":"CN_GUDO_MO","location":{"nation":"CN","province":"GUDO","city":"MO","area":"","sub":"twitter","district":"酒店"},"body":{"height":"162","birth":"2002","chest":"20"},"status":{"flag":1,"t":1673263134226},"service":{"open":256,"pubis":1,"hand":64,"mouth":16,"tool":4,"body":64,"form":8},"charge":{"x1":"1000"},"character":{},"rating":{"t":1673263134226},"feed":{"t":1673263134226},"extra":{},"secret":{},"t":1673263134226,"type":1},"CN_GUDO_MO0102":{"id":"CN_GUDO_MO0102","code":"MO0102","locator":"CN_GUDO_MO","location":{"nation":"CN","province":"GUDO","city":"MO","area":"","sub":"twitter","district":"酒店","street":"金龙"},"body":{"chest":"30","weight":"52","height":"160","birth":"1991"},"status":{"flag":1024,"t":1673319581136},"service":{"open":256,"pubis":1,"hand":96,"mouth":32976,"body":84},"charge":{"x1":"400","g1":"500"},"character":{"flag":32768},"rating":{"t":1673319581136,"overall":"85","massage":""},"feed":{"t":1673319581136},"extra":{},"secret":{},"t":1673319581136,"t_rest":1673584408000},"CN_GUDO_MO0103":{"id":"CN_GUDO_MO0103","code":"MO0103","locator":"CN_GUDO_MO","location":{"nation":"CN","province":"GUDO","city":"MO","area":"","sub":"twitter","district":"酒店,利澳"},"body":{"height":"165","weight":"47","chest":"30","birth":"2000"},"status":{"flag":1024,"t":1673323028303},"service":{"open":256,"hand":104,"mouth":16,"pubis":1},"charge":{"x1":"500"},"character":{},"rating":{"t":1673323028303,"overall":"85"},"feed":{"t":1673323028303},"extra":{},"secret":{},"t":1673323028303,"desc":"","t_rest":1673931890000},"CN_GUDO_MO0104":{"id":"CN_GUDO_MO0104","code":"MO0104","locator":"CN_GUDO_MO","location":{"nation":"CN","province":"GUDO","city":"MO","area":"","sub":"twitter","district":"酒店,皇都"},"body":{"birth":"2000","weight":"43","height":"160","chest":"30"},"status":{"flag":1,"t":1673492380702},"service":{"pubis":1,"hand":64,"open":256,"mouth":16,"body":4},"charge":{"x1":"500"},"character":{},"rating":{"t":1673492380702},"feed":{"t":1673492380702},"extra":{},"secret":{},"t":1673492380702},"CN_GUDO_MO0105":{"id":"CN_GUDO_MO0105","code":"MO0105","locator":"CN_GUDO_MO","location":{"nation":"CN","province":"GUDO","city":"MO","area":"","sub":"twitter","district":"酒店"},"body":{"height":"158","weight":"43","chest":"20","birth":"1999"},"status":{"flag":0,"t":1673509798928},"service":{"open":256,"pubis":1,"body":4,"hand":64,"mouth":16},"charge":{},"character":{},"rating":{"t":1673509798928},"feed":{"t":1673509798928},"extra":{},"secret":{},"t":1673509798928,"type":1,"t_rest":1673584397000},"CN_GUDO_MO0106":{"id":"CN_GUDO_MO0106","code":"MO0106","locator":"CN_GUDO_MO","location":{"nation":"CN","province":"GUDO","city":"MO","area":"","sub":"twitter","district":"酒店,皇家金堡"},"body":{"height":"160","weight":"44","chest":"20","birth":"1997"},"status":{"flag":0,"t":1673509868273},"service":{"pubis":1,"body":4,"hand":64,"mouth":16,"open":256},"charge":{"x1":"450"},"character":{},"rating":{"t":1673509868273},"feed":{"t":1673509868273},"extra":{},"secret":{},"t":1673509868273,"type":1,"t_rest":1673584392000},"CN_GUDO_MO0107":{"id":"CN_GUDO_MO0107","code":"MO0107","locator":"CN_GUDO_MO","location":{"nation":"CN","province":"GUDO","city":"MO","area":"","sub":"twitter","district":"酒店"},"body":{"birth":"","height":"161","weight":"47","chest":"30"},"status":{"flag":1,"t":1673584268588},"service":{"pubis":1,"hand":64,"open":256,"mouth":16,"body":4},"charge":{"x1":"800"},"character":{},"rating":{"t":1673584268588},"feed":{"t":1673584268588},"extra":{},"secret":{},"t":1673584268588},"CN_GUDO_MO0093":{"id":"CN_GUDO_MO0093","code":"MO0093","locator":"CN_GUDO_MO","location":{"nation":"CN","province":"GUDO","city":"MO","area":"","sub":"twitter","district":"利澳,酒店"},"body":{"height":"160","weight":"48","chest":"25"},"status":{"flag":1,"t":1673679831345},"service":{"open":256,"pubis":1,"body":4,"hand":64,"mouth":16},"charge":{"x1":"450"},"character":{},"rating":{"t":1673679831345},"feed":{"t":1673679831345},"extra":{},"secret":{},"t":1673679831345,"type":1},"CN_GUDO_MO0094":{"id":"CN_GUDO_MO0094","code":"MO0094","locator":"CN_GUDO_MO","location":{"nation":"CN","province":"GUDO","city":"MO","area":"","sub":"twitter","district":"酒店"},"body":{"height":"160","chest":"40","birth":"1998"},"status":{"flag":1,"t":1673683064413},"service":{"open":768,"pubis":1,"hand":64,"mouth":32912},"charge":{"x1":"450"},"character":{},"rating":{"t":1673683064413},"feed":{"t":1673683064413},"extra":{},"secret":{},"t":1673683064413},"CN_GUDO_MO0095":{"id":"CN_GUDO_MO0095","code":"MO0095","locator":"CN_GUDO_MO","location":{"nation":"CN","province":"GUDO","city":"MO","area":"","sub":"twitter","district":"酒店"},"body":{"height":"162","weight":"46","chest":"20","birth":"2001"},"status":{"flag":1024,"t":1673706366626},"service":{"open":256,"hand":64,"pubis":1,"body":4,"mouth":16},"charge":{"x1":"800"},"character":{},"rating":{"t":1673706366626},"feed":{"t":1673706366626},"extra":{},"secret":{},"t":1673706366626,"type":1,"t_rest":1674014596000},"CN_GUDO_MO0096":{"id":"CN_GUDO_MO0096","code":"MO0096","locator":"CN_GUDO_MO","location":{"nation":"CN","province":"GUDO","city":"MO","area":"","sub":"twitter","district":"酒店"},"body":{"height":"160","weight":"47","chest":"30","birth":"2000"},"status":{"flag":524289,"t":1673706398977},"service":{"hand":64,"mouth":16,"pubis":1,"body":4,"open":256},"charge":{"x1":"450"},"character":{},"rating":{"t":1673706398977},"feed":{"t":1673706398977},"extra":{},"secret":{},"t":1673706398977,"t_rest":1674014603000},"CN_GUDO_MO0108":{"id":"CN_GUDO_MO0108","code":"MO0108","locator":"CN_GUDO_MO","location":{"nation":"CN","province":"GUDO","city":"MO","area":"","sub":"twitter","district":"酒店"},"body":{"height":"160","birth":"","chest":"35"},"status":{"flag":1,"t":1673862912640},"service":{"open":256,"hand":96,"pubis":1,"body":20,"mouth":16},"charge":{"x1":"400"},"character":{},"rating":{"t":1673862912640},"feed":{"t":1673862912640},"extra":{},"secret":{},"t":1673862912640,"type":1},"CN_GUDO_MO0097":{"id":"CN_GUDO_MO0097","code":"MO0097","locator":"CN_GUDO_MO","location":{"nation":"CN","province":"GUDO","city":"MO","area":"","sub":"twitter","district":"酒店,利澳"},"body":{"height":"160","chest":"30","birth":"1997"},"status":{"flag":1,"t":1674011332534},"service":{"open":1,"hand":113,"pubis":0,"body":64,"mouth":0},"charge":{"h1":"260"},"character":{},"rating":{"t":1674011332534},"feed":{"t":1674011332534},"extra":{},"secret":{},"t":1674011332534},"CN_GUDO_MO0109":{"id":"CN_GUDO_MO0109","code":"MO0109","locator":"CN_GUDO_MO","location":{"nation":"CN","province":"GUDO","city":"MO","area":"","sub":"twitter","district":"酒店,置地"},"body":{"birth":"1996","chest":"40","height":"165"},"status":{"flag":1,"t":1674014221317},"service":{"open":256,"hand":64,"pubis":1,"body":4,"mouth":33168},"charge":{"x1":"450"},"character":{},"rating":{"t":1674014221317},"feed":{"t":1674014221317},"extra":{},"secret":{},"t":1674014221317,"type":1},"CN_GUDO_MO0110":{"id":"CN_GUDO_MO0110","code":"MO0110","locator":"CN_GUDO_MO","location":{"nation":"CN","province":"GUDO","city":"MO","area":"","sub":"twitter","district":"酒店,利澳"},"body":{"birth":"1997","chest":"30","height":"160","weight":"49"},"status":{"flag":1,"t":1674014347860},"service":{"open":49,"hand":115,"body":64,"mouth":272},"charge":{"h1":"260","h3":"300","h2":""},"character":{},"rating":{"t":1674014347860},"feed":{"t":1674014347860},"extra":{},"secret":{},"t":1674014347860,"type":1},"CN_GUDO_MO0111":{"id":"CN_GUDO_MO0111","code":"MO0111","locator":"CN_GUDO_MO","location":{"nation":"CN","province":"GUDO","city":"MO","area":"","sub":"twitter","district":"酒店,利澳"},"body":{"birth":"1999","chest":"30","height":"155","weight":"49"},"status":{"flag":1,"t":1674014449668},"service":{"hand":113,"body":80,"mouth":4368},"charge":{"h3":"300","h1":"270"},"character":{},"rating":{"t":1674014449668},"feed":{"t":1674014449668},"extra":{},"secret":{},"t":1674014449668,"type":1},"CN_GUDO_MO0112":{"id":"CN_GUDO_MO0112","code":"MO0112","locator":"CN_GUDO_MO","location":{"nation":"CN","province":"GUDO","city":"MO","area":"","sub":"twitter","district":"酒店,万龙"},"body":{"weight":"50","birth":"2000","chest":"30","height":"160"},"status":{"flag":524289,"t":1674015808382},"service":{"tool":7,"pubis":1,"hand":64,"body":84,"mouth":16,"open":256},"charge":{"x1":"500"},"character":{},"rating":{"t":1674015808382,"overall":"85","slutty":"85"},"feed":{"t":1674015808382},"extra":{},"secret":{},"t":1674015808382,"type":1},"CN_GUDO_MO0113":{"id":"CN_GUDO_MO0113","code":"MO0113","locator":"CN_GUDO_MO","location":{"nation":"CN","province":"GUDO","city":"MO","area":"","sub":"twitter","district":"利澳,酒店"},"body":{"height":"158","weight":"43","chest":"25","birth":"1998"},"status":{"flag":1,"t":1675044988323},"service":{"hand":64,"pubis":1,"body":84,"mouth":48,"tool":4},"charge":{"x1":"450"},"character":{},"rating":{"t":1675044988323,"overall":"83"},"feed":{"t":1675044988323},"extra":{},"secret":{},"t":1675044988323},"CN_GUDO_MO0114":{"id":"CN_GUDO_MO0114","code":"MO0114","locator":"CN_GUDO_MO","location":{"nation":"CN","province":"GUDO","city":"MO","area":"","sub":"twitter","district":"利澳,酒店"},"body":{"chest":"55","birth":"1996","height":"160","weight":"50"},"status":{"flag":1,"t":1675047510779},"service":{"open":256,"pubis":1,"body":84,"hand":64,"mouth":16},"charge":{"x1":"700"},"character":{},"rating":{"t":1675047510779,"overall":"85","shape":"90","service":"85"},"feed":{"t":1675047510779},"extra":{},"secret":{},"t":1675047510779},"CN_GUDO_MO0115":{"id":"CN_GUDO_MO0115","code":"MO0115","locator":"CN_GUDO_MO","location":{"nation":"CN","province":"GUDO","city":"MO","area":"","sub":"twitter","district":"酒店,利澳"},"body":{"birth":"1997","height":"160","chest":"25","weight":"48"},"status":{"flag":1,"t":1675156115630},"service":{"pubis":1,"open":256,"body":4,"hand":72,"mouth":16},"charge":{"x1":"500"},"character":{},"rating":{"t":1675156115630},"feed":{"t":1675156115630},"extra":{},"secret":{},"t":1675156115630},"CN_GUDO_MO0116":{"id":"CN_GUDO_MO0116","code":"MO0116","locator":"CN_GUDO_MO","location":{"nation":"CN","province":"GUDO","city":"MO","area":"","sub":"twitter","district":"酒店,利澳"},"body":{"height":"165","weight":"46","chest":"20","birth":"2000"},"status":{"flag":1,"t":1675739119732},"service":{"open":256,"hand":72,"pubis":1,"body":20,"mouth":466,"tool":2},"charge":{"x1":"1800"},"character":{},"rating":{"t":1675739119732},"feed":{"t":1675739119732},"extra":{},"secret":{},"t":1675739119732},"CN_GUDO_MO0117":{"id":"CN_GUDO_MO0117","code":"MO0117","locator":"CN_GUDO_MO","location":{"nation":"CN","province":"GUDO","city":"MO","area":"","sub":"twitter","district":"酒店,利澳"},"body":{"height":"158","weight":"43","chest":"20"},"status":{"flag":1,"t":1675750772107},"service":{"hand":115,"body":16,"open":1},"charge":{"h1":"290"},"character":{},"rating":{"t":1675750772107,"overall":"85","attitude":"88"},"feed":{"t":1675750772107},"extra":{},"secret":{},"t":1675750772107}}