{"CN_GUDO_ZH0002":{"id":"CN_GUDO_ZH0002","code":"ZH0002","locator":"CN_GUDO_ZH","body":{"height":170,"cosmetic":1,"birth":1995},"service":{},"charge":{},"character":{},"rating":{"t":1622187190691,"shape":70},"status":{"t":1622187190691,"flag":1},"location":{"nation":"CN","province":"GUDO","city":"ZH","district":"吉大"},"feed":{"t":1622187190691},"secret":{"t":1622187190691},"extra":{},"type":1},"CN_GUDO_ZH0013":{"id":"CN_GUDO_ZH0013","code":"ZH0013","locator":"CN_GUDO_ZH","body":{"height":160,"chest":20,"cosmetic":0,"birth":"1995"},"service":{"open":288,"hand":17,"mouth":4560,"body":16,"pubis":0,"tool":0,"form":0},"charge":{"h3":"280","x1":"400"},"character":{"type":32,"flag":0},"rating":{"t":1622187190691,"overall":"95","service":"90","character":"90","slutty":"","mouth":"95","attitude":"90"},"status":{"t":1622187190691,"flag":1},"location":{"nation":"CN","province":"GUDO","city":"ZH","district":"拱北"},"feed":{"t":1622187190691},"secret":{"t":1622187190691},"extra":{},"type":1,"t":1622341177405,"name":"木子"},"CN_GUDO_ZH0022":{"id":"CN_GUDO_ZH0022","code":"ZH0022","locator":"CN_GUDO_ZH","body":{"height":160,"chest":30,"birth":1990},"service":{"open":1,"hand":16},"charge":{},"character":{},"rating":{"t":1622187190691,"overall":70,"service":70,"character":70},"status":{"t":1622187190691,"flag":1},"location":{"nation":"CN","province":"GUDO","city":"ZH","district":"拱北"},"feed":{"t":1622187190691},"secret":{"t":1622187190691},"extra":{},"type":1},"CN_GUDO_ZH0074":{"id":"CN_GUDO_ZH0074","code":"ZH0074","locator":"CN_GUDO_ZH","body":{"height":165,"chest":"25","birth":"1988","cosmetic":0,"weight":"50"},"service":{"open":288,"hand":81,"mouth":4496,"body":16,"pubis":0,"tool":0,"form":0},"charge":{"h1":"230","h3":"280","x1":"350"},"character":{"type":32,"flag":0},"rating":{"t":1622187190691,"overall":85,"shape":"75","service":"90","character":"80","slutty":"80","massage":"90","mouth":"90"},"status":{"t":1622187190691,"flag":1056},"location":{"nation":"CN","province":"GUDO","city":"ZH","district":"拱北,澳门","street":"口岸"},"feed":{"t":1622187190691},"secret":{"t":1622187190691},"extra":{},"type":1,"name":"YOYO"},"CN_GUDO_ZH0080":{"id":"CN_GUDO_ZH0080","code":"ZH0080","locator":"CN_GUDO_ZH","body":{"height":165,"chest":40,"birth":1995},"service":{"open":1,"hand":16},"charge":{},"character":{},"rating":{"t":1622187190691,"overall":85,"face":70,"shape":70},"status":{"t":1622187190691,"flag":1},"location":{"nation":"CN","province":"GUDO","city":"ZH","district":"拱北"},"feed":{"t":1622187190691},"secret":{"t":1622187190691},"extra":{},"type":1},"CN_GUDO_ZH0082":{"id":"CN_GUDO_ZH0082","code":"ZH0082","locator":"CN_GUDO_ZH","body":{"chest":30,"birth":"1998","height":"158","weight":"50","cosmetic":0},"service":{"open":273,"hand":19,"mouth":4240,"body":0,"pubis":0,"tool":0,"form":0},"charge":{"h1":"258","h2":"358"},"character":{"flag":192},"rating":{"t":1622187190691,"overall":85,"face":"85","shape":70,"service":"80","character":"85"},"status":{"t":1622187190691,"flag":1056},"location":{"nation":"CN","province":"GUDO","city":"ZH","district":"夏湾,前山,澳门","street":"中安广场"},"feed":{"t":1622187190691},"secret":{"t":1622187190691},"extra":{},"type":1,"desc":"全套和妹谈"},"CN_GUDO_ZH0087":{"id":"CN_GUDO_ZH0087","code":"ZH0087","locator":"CN_GUDO_ZH","body":{"height":165,"chest":30,"cosmetic":1,"birth":1995},"service":{"flag":131072,"form":8},"charge":{},"character":{},"rating":{"t":1622187190691,"overall":70,"shape":70},"status":{"t":1622187190691,"flag":1},"location":{"nation":"CN","province":"GUDO","city":"ZH","district":"拱北"},"feed":{"t":1622187190691},"secret":{"t":1622187190691},"extra":{},"type":1},"CN_GUDO_ZH0096":{"id":"CN_GUDO_ZH0096","code":"ZH0096","locator":"CN_GUDO_ZH","body":{"chest":30,"birth":2000,"cosmetic":0,"height":"160","weight":"52"},"service":{"open":0,"mouth":16,"hand":64,"body":0,"pubis":0,"tool":0,"form":0},"charge":{"x1":"600"},"character":{"flag":0},"rating":{"t":1622187190691,"face":"80"},"status":{"t":1622187190691,"flag":1029},"location":{"nation":"CN","province":"GUDO","city":"ZH","district":"吉大"},"feed":{"t":1622187190691},"secret":{"t":1622187190691},"extra":{},"type":1},"CN_GUDO_ZH0102":{"id":"CN_GUDO_ZH0102","code":"ZH0102","locator":"CN_GUDO_ZH","body":{"height":160,"chest":30,"birth":1990},"service":{"mouth":1},"charge":{},"character":{},"rating":{"t":1622187190691,"overall":70,"service":70,"character":70},"status":{"t":1622187190691,"flag":1},"location":{"nation":"CN","province":"GUDO","city":"ZH","district":"拱北"},"feed":{"t":1622187190691},"secret":{"t":1622187190691},"extra":{},"type":1},"CN_GUDO_ZH0108":{"id":"CN_GUDO_ZH0108","code":"ZH0108","locator":"CN_GUDO_ZH","body":{"birth":1995},"service":{"form":8},"charge":{},"character":{},"rating":{"t":1622187190691,"overall":70,"face":70,"character":70},"status":{"t":1622187190691,"flag":1},"location":{"nation":"CN","province":"GUDO","city":"ZH","district":"吉大"},"feed":{"t":1622187190691},"secret":{"t":1622187190691},"extra":{},"type":1},"CN_GUDO_ZH0131":{"id":"CN_GUDO_ZH0131","code":"ZH0131","locator":"CN_GUDO_ZH","body":{"height":160,"chest":20,"birth":2000},"service":{},"charge":{},"character":{"type":32},"rating":{"t":1622187190691,"overall":70,"slutty":70},"status":{"t":1622187190691,"flag":9},"location":{"nation":"CN","province":"GUDO","city":"ZH","district":"拱北,夏湾,兰埔,吉大,不定区,上门"},"feed":{"t":1622187190691},"secret":{"t":1622187190691},"extra":{},"type":5},"CN_GUDO_ZH0137":{"id":"CN_GUDO_ZH0137","code":"ZH0137","locator":"CN_GUDO_ZH","body":{"birth":2000},"service":{},"charge":{},"character":{},"rating":{"t":1622187190691,"overall":70,"face":70,"shape":70,"character":70},"status":{"t":1622187190691,"flag":1},"location":{"nation":"CN","province":"GUDO","city":"ZH","district":"吉大,澳门"},"feed":{"t":1622187190691},"secret":{"t":1622187190691},"extra":{},"type":1},"CN_GUDO_ZH0138":{"id":"CN_GUDO_ZH0138","code":"ZH0138","locator":"CN_GUDO_ZH","body":{"height":170,"chest":40,"birth":2000,"cosmetic":4},"service":{"form":8,"open":0,"mouth":4240,"hand":72,"body":16,"pubis":0,"tool":0},"charge":{"x1":"550","night1":"2000"},"character":{"flag":128},"rating":{"t":1622187190691,"overall":85,"face":"85","shape":"75","attitude":"75","slutty":"75","body":"85"},"status":{"t":1622187190691,"flag":1028},"location":{"nation":"CN","province":"GUDO","city":"ZH","district":"香洲"},"feed":{"t":1622187190691},"secret":{"t":1622187190691},"extra":{},"type":1},"CN_GUDO_ZH0142":{"id":"CN_GUDO_ZH0142","code":"ZH0142","locator":"CN_GUDO_ZH","body":{"height":160,"chest":20,"birth":2000},"service":{"open":32,"mouth":256},"charge":{},"character":{},"rating":{"t":1622187190691,"overall":85,"face":70,"service":70,"character":70},"status":{"t":1622187190691,"flag":1},"location":{"nation":"CN","province":"GUDO","city":"ZH","district":"拱北"},"feed":{"t":1622187190691},"secret":{"t":1622187190691},"extra":{},"type":1},"CN_GUDO_ZH0143":{"id":"CN_GUDO_ZH0143","code":"ZH0143","locator":"CN_GUDO_ZH","body":{"birth":1990},"service":{},"charge":{},"character":{},"rating":{"t":1622187190691},"status":{"t":1622187190691,"flag":1},"location":{"nation":"CN","province":"GUDO","city":"ZH","district":"拱北"},"feed":{"t":1622187190691},"secret":{"t":1622187190691},"extra":{},"type":1},"CN_GUDO_ZH0144":{"id":"CN_GUDO_ZH0144","code":"ZH0144","locator":"CN_GUDO_ZH","body":{"height":170,"birth":1995},"service":{},"charge":{},"character":{},"rating":{"t":1622187190691,"shape":70},"status":{"t":1622187190691,"flag":1},"location":{"nation":"CN","province":"GUDO","city":"ZH","district":"拱北"},"feed":{"t":1622187190691},"secret":{"t":1622187190691},"extra":{},"type":1},"CN_GUDO_ZH0146":{"id":"CN_GUDO_ZH0146","code":"ZH0146","locator":"CN_GUDO_ZH","body":{"birth":1995},"service":{"open":17,"hand":17,"mouth":16},"charge":{},"character":{},"rating":{"t":1622187190691,"massage":70},"status":{"t":1622187190691,"flag":1},"location":{"nation":"CN","province":"GUDO","city":"ZH","district":"拱北"},"feed":{"t":1622187190691},"secret":{"t":1622187190691},"extra":{},"type":1},"CN_GUDO_ZH0147":{"id":"CN_GUDO_ZH0147","code":"ZH0147","locator":"CN_GUDO_ZH","body":{},"service":{},"charge":{},"character":{},"rating":{"t":1622187190691,"service":70},"status":{"t":1622187190691,"flag":1},"location":{"nation":"CN","province":"GUDO","city":"ZH","district":"拱北"},"feed":{"t":1622187190691},"secret":{"t":1622187190691},"extra":{},"type":1},"CN_GUDO_ZH0153":{"id":"CN_GUDO_ZH0153","code":"ZH0153","locator":"CN_GUDO_ZH","body":{"birth":2000,"cosmetic":0,"height":"158","weight":"43","chest":"20"},"service":{"open":1,"hand":115,"mouth":4096,"body":0,"pubis":0,"tool":0,"form":0},"charge":{"h1":"230"},"character":{"flag":0},"rating":{"t":1622187190691,"overall":85,"massage":"90","face":"75","attitude":"85","character":"85","young":"90"},"status":{"t":1622187190691,"flag":1},"location":{"nation":"CN","province":"GUDO","city":"ZH","district":"拱北"},"feed":{"t":1622187190691},"secret":{"t":1622187190691},"extra":{},"type":1,"t":1622344096292},"CN_GUDO_ZH0168":{"id":"CN_GUDO_ZH0168","code":"ZH0168","locator":"CN_GUDO_ZH","body":{"height":160,"chest":20},"service":{"open":17,"hand":16,"mouth":16},"charge":{},"character":{},"rating":{"t":1622187190691},"status":{"t":1622187190691,"flag":1},"location":{"nation":"CN","province":"GUDO","city":"ZH","district":"拱北"},"feed":{"t":1622187190691},"secret":{"t":1622187190691},"extra":{},"type":1},"CN_GUDO_ZH0173":{"id":"CN_GUDO_ZH0173","code":"ZH0173","locator":"CN_GUDO_ZH","body":{},"service":{"open":1,"hand":17},"charge":{},"character":{},"rating":{"t":1622187190691,"overall":70,"service":70,"character":70,"massage":70},"status":{"t":1622187190691,"flag":1},"location":{"nation":"CN","province":"GUDO","city":"ZH","district":"拱北"},"feed":{"t":1622187190691},"secret":{"t":1622187190691},"extra":{},"type":1},"CN_GUDO_ZH0187":{"id":"CN_GUDO_ZH0187","code":"ZH0187","locator":"CN_GUDO_ZH","body":{"chest":40,"birth":1985},"service":{},"charge":{},"character":{},"rating":{"t":1622187190691,"overall":70,"service":70},"status":{"t":1622187190691,"flag":1},"location":{"nation":"CN","province":"GUDO","city":"ZH","district":"拱北"},"feed":{"t":1622187190691},"secret":{"t":1622187190691},"extra":{},"type":1},"CN_GUDO_ZH0196":{"id":"CN_GUDO_ZH0196","code":"ZH0196","locator":"CN_GUDO_ZH","body":{"height":160,"chest":30,"birth":2000,"cosmetic":0,"weight":"50"},"service":{"open":0,"mouth":16,"hand":64,"body":0,"pubis":0,"tool":0,"form":0},"charge":{"n1":"400"},"character":{"flag":192},"rating":{"t":1622187190691,"overall":85,"face":70,"character":70,"attitude":"85"},"status":{"t":1622187190691,"flag":32},"location":{"nation":"CN","province":"GUDO","city":"ZH","district":"兰埔","street":"格力香樟"},"feed":{"t":1622187190691},"secret":{"t":1622187190691},"extra":{},"type":1},"CN_GUDO_ZH0205":{"id":"CN_GUDO_ZH0205","code":"ZH0205","locator":"CN_GUDO_ZH","body":{"height":160,"birth":1995,"weight":"52"},"service":{"mouth":209,"form":8,"body":256},"charge":{"booking":"100","x1":"500","night1":"2000"},"character":{"type":32,"flag":16816},"rating":{"t":1622187190691,"overall":85,"face":"75","shape":70,"character":"85","slutty":"85"},"status":{"t":1622187190691,"flag":1},"location":{"nation":"CN","province":"GUDO","city":"ZH","district":"吉大"},"feed":{"t":1622187190691},"secret":{"t":1622187190691},"extra":{},"type":1,"name":"雅婷","t":1622311623153},"CN_GUDO_ZH0206":{"id":"CN_GUDO_ZH0206","code":"ZH0206","locator":"CN_GUDO_ZH","body":{"height":160,"chest":20,"birth":1995},"service":{"open":1,"hand":16},"charge":{},"character":{},"rating":{"t":1622187190691,"overall":70,"face":70,"shape":70,"character":70},"status":{"t":1622187190691,"flag":1},"location":{"nation":"CN","province":"GUDO","city":"ZH","district":"夏湾"},"feed":{"t":1622187190691},"secret":{"t":1622187190691},"extra":{},"type":1},"CN_GUDO_ZH0208":{"id":"CN_GUDO_ZH0208","code":"ZH0208","locator":"CN_GUDO_ZH","body":{"birth":1995},"service":{"open":3,"hand":17,"body":256,"form":553648144},"charge":{},"character":{},"rating":{"t":1622187190691,"overall":70,"face":70,"shape":70,"character":70,"massage":70},"status":{"t":1622187190691,"flag":1},"location":{"nation":"CN","province":"GUDO","city":"ZH","district":"拱北"},"feed":{"t":1622187190691},"secret":{"t":1622187190691},"extra":{},"type":1},"CN_GUDO_ZH0211":{"id":"CN_GUDO_ZH0211","code":"ZH0211","locator":"CN_GUDO_ZH","body":{"birth":1995},"service":{"open":1,"hand":17},"charge":{},"character":{},"rating":{"t":1622187190691,"overall":70,"character":70,"massage":70},"status":{"t":1622187190691,"flag":1},"location":{"nation":"CN","province":"GUDO","city":"ZH","district":"拱北"},"feed":{"t":1622187190691},"secret":{"t":1622187190691},"extra":{},"type":1},"CN_GUDO_ZH0214":{"id":"CN_GUDO_ZH0214","code":"ZH0214","locator":"CN_GUDO_ZH","body":{},"service":{},"charge":{},"character":{},"rating":{"t":1622187190691,"overall":70,"character":70},"status":{"t":1622187190691,"flag":1},"location":{"nation":"CN","province":"GUDO","city":"ZH","district":"拱北"},"feed":{"t":1622187190691},"secret":{"t":1622187190691},"extra":{},"type":1},"CN_GUDO_ZH0215":{"id":"CN_GUDO_ZH0215","code":"ZH0215","locator":"CN_GUDO_ZH","body":{"birth":1990},"service":{"form":8},"charge":{},"character":{},"rating":{"t":1622187190691,"overall":70,"face":70,"shape":70},"status":{"t":1622187190691,"flag":1},"location":{"nation":"CN","province":"GUDO","city":"ZH","district":"拱北"},"feed":{"t":1622187190691},"secret":{"t":1622187190691},"extra":{},"type":1},"CN_GUDO_ZH0217":{"id":"CN_GUDO_ZH0217","code":"ZH0217","locator":"CN_GUDO_ZH","body":{"birth":2000,"cosmetic":0,"weight":"43","height":"157","chest":"30"},"service":{"open":1,"hand":119,"mouth":4096,"body":16,"pubis":0,"tool":0,"form":0},"charge":{"h1":"238"},"character":{"flag":0},"rating":{"t":1622187190691,"overall":"90","face":"80","service":"80","character":"90","massage":"80","attitude":"90"},"status":{"t":1622187190691,"flag":1},"location":{"nation":"CN","province":"GUDO","city":"ZH","district":"拱北"},"feed":{"t":1622187190691},"secret":{"t":1622187190691},"extra":{},"type":1,"name":"夕夕","desc":"抓龙根 + 50"},"CN_GUDO_ZH0219":{"id":"CN_GUDO_ZH0219","code":"ZH0219","locator":"CN_GUDO_ZH","body":{"birth":1995},"service":{"open":33,"hand":17,"mouth":256},"charge":{},"character":{},"rating":{"t":1622187190691,"overall":70,"service":70,"character":70,"massage":70},"status":{"t":1622187190691,"flag":1},"location":{"nation":"CN","province":"GUDO","city":"ZH","district":"夏湾,前山"},"feed":{"t":1622187190691},"secret":{"t":1622187190691},"extra":{},"type":1},"CN_GUDO_ZH0220":{"id":"CN_GUDO_ZH0220","code":"ZH0220","locator":"CN_GUDO_ZH","body":{"birth":1995},"service":{},"charge":{},"character":{},"rating":{"t":1622187190691,"overall":70,"face":70},"status":{"t":1622187190691,"flag":1},"location":{"nation":"CN","province":"GUDO","city":"ZH","district":"夏湾,前山"},"feed":{"t":1622187190691},"secret":{"t":1622187190691},"extra":{},"type":1},"CN_GUDO_ZH0221":{"id":"CN_GUDO_ZH0221","code":"ZH0221","locator":"CN_GUDO_ZH","body":{},"service":{},"charge":{},"character":{},"rating":{"t":1622187190691,"overall":70,"shape":70,"service":70,"character":70},"status":{"t":1622187190691,"flag":1},"location":{"nation":"CN","province":"GUDO","city":"ZH","district":"香洲,澳门"},"feed":{"t":1622187190691},"secret":{"t":1622187190691},"extra":{},"type":1},"CN_GUDO_ZH0225":{"id":"CN_GUDO_ZH0225","code":"ZH0225","locator":"CN_GUDO_ZH","body":{"height":160,"chest":40,"birth":1995},"service":{"open":32,"mouth":256},"charge":{},"character":{},"rating":{"t":1622187190691,"overall":85,"shape":70,"service":70,"character":70},"status":{"t":1622187190691,"flag":1},"location":{"nation":"CN","province":"GUDO","city":"ZH","district":"南屏"},"feed":{"t":1622187190691},"secret":{"t":1622187190691},"extra":{},"type":1},"CN_GUDO_ZH0228":{"id":"CN_GUDO_ZH0228","code":"ZH0228","locator":"CN_GUDO_ZH","body":{"height":"157","chest":40,"cosmetic":1,"birth":"1998","weight":"45"},"service":{"open":256,"mouth":4544,"form":8,"hand":72,"body":16,"pubis":0,"tool":0},"charge":{"x1":"500","night1":"3000"},"character":{"type":32,"flag":18992},"rating":{"t":1622187190691,"overall":"98","face":"80","shape":70,"service":"90","character":"99","slutty":70,"attitude":"99","body":"80"},"status":{"t":1622187190691,"flag":1},"location":{"nation":"CN","province":"GUDO","city":"ZH","district":"吉大","street":"石花西路 66 号公寓"},"feed":{"t":1622187190691},"secret":{"t":1622187190691},"extra":{},"type":1,"name":"元气少女"},"CN_GUDO_ZH0229":{"id":"CN_GUDO_ZH0229","code":"ZH0229","locator":"CN_GUDO_ZH","body":{"birth":1995},"service":{},"charge":{},"character":{},"rating":{"t":1622187190691,"overall":70,"face":70,"shape":70},"status":{"t":1622187190691,"flag":1},"location":{"nation":"CN","province":"GUDO","city":"ZH","district":"拱北"},"feed":{"t":1622187190691},"secret":{"t":1622187190691},"extra":{},"type":1},"CN_GUDO_ZH0231":{"id":"CN_GUDO_ZH0231","code":"ZH0231","locator":"CN_GUDO_ZH","body":{"birth":1995},"service":{"open":1,"hand":16},"charge":{},"character":{},"rating":{"t":1622187190691,"overall":70,"shape":70,"service":70},"status":{"t":1622187190691,"flag":1},"location":{"nation":"CN","province":"GUDO","city":"ZH","district":"拱北"},"feed":{"t":1622187190691},"secret":{"t":1622187190691},"extra":{},"type":1},"CN_GUDO_ZH0233":{"id":"CN_GUDO_ZH0233","code":"ZH0233","locator":"CN_GUDO_ZH","body":{"birth":1995},"service":{"hand":1,"form":8},"charge":{},"character":{},"rating":{"t":1622187190691,"service":70,"massage":70},"status":{"t":1622187190691,"flag":1},"location":{"nation":"CN","province":"GUDO","city":"ZH","district":"吉大"},"feed":{"t":1622187190691},"secret":{"t":1622187190691},"extra":{},"type":1},"CN_GUDO_ZH0235":{"id":"CN_GUDO_ZH0235","code":"ZH0235","locator":"CN_GUDO_ZH","body":{"birth":1985},"service":{"form":553648144},"charge":{},"character":{},"rating":{"t":1622187190691,"overall":70,"shape":70,"service":70,"character":70},"status":{"t":1622187190691,"flag":1},"location":{"nation":"CN","province":"GUDO","city":"ZH","district":"兰埔"},"feed":{"t":1622187190691},"secret":{"t":1622187190691},"extra":{},"type":1},"CN_GUDO_ZH0236":{"id":"CN_GUDO_ZH0236","code":"ZH0236","locator":"CN_GUDO_ZH","body":{"birth":1990},"service":{"flag":131072,"form":8},"charge":{},"character":{},"rating":{"t":1622187190691,"overall":70,"service":70,"character":70},"status":{"t":1622187190691,"flag":1},"location":{"nation":"CN","province":"GUDO","city":"ZH","district":"兰埔"},"feed":{"t":1622187190691},"secret":{"t":1622187190691},"extra":{},"type":1},"CN_GUDO_ZH0243":{"id":"CN_GUDO_ZH0243","code":"ZH0243","locator":"CN_GUDO_ZH","body":{"cosmetic":1,"birth":1995},"service":{},"charge":{},"character":{},"rating":{"t":1622187190691,"shape":70},"status":{"t":1622187190691,"flag":1},"location":{"nation":"CN","province":"GUDO","city":"ZH","district":"拱北,夏湾"},"feed":{"t":1622187190691},"secret":{"t":1622187190691},"extra":{},"type":1},"CN_GUDO_ZH0245":{"id":"CN_GUDO_ZH0245","code":"ZH0245","locator":"CN_GUDO_ZH","body":{"birth":1990},"service":{"open":1,"hand":17,"form":8},"charge":{},"character":{},"rating":{"t":1622187190691,"service":70,"massage":70},"status":{"t":1622187190691,"flag":1},"location":{"nation":"CN","province":"GUDO","city":"ZH","district":"拱北"},"feed":{"t":1622187190691},"secret":{"t":1622187190691},"extra":{},"type":1},"CN_GUDO_ZH0249":{"id":"CN_GUDO_ZH0249","code":"ZH0249","locator":"CN_GUDO_ZH","body":{"height":160,"chest":20,"birth":"1997","cosmetic":0,"weight":"46"},"service":{"open":0,"mouth":16,"hand":0,"body":0,"pubis":0,"tool":0,"form":0},"charge":{"n1":"500"},"character":{"flag":0},"rating":{"t":1622187190691,"overall":"","face":"75","shape":""},"status":{"t":1622187190691,"flag":589833},"location":{"nation":"CN","province":"GUDO","city":"ZH","district":"吉大"},"feed":{"t":1622187190691},"secret":{"t":1622187190691},"extra":{},"type":5,"name":"微微"},"CN_GUDO_ZH0251":{"id":"CN_GUDO_ZH0251","code":"ZH0251","locator":"CN_GUDO_ZH","body":{"birth":1995},"service":{"open":32,"mouth":256},"charge":{},"character":{},"rating":{"t":1622187190691,"character":70},"status":{"t":1622187190691,"flag":1},"location":{"nation":"CN","province":"GUDO","city":"ZH","district":"拱北"},"feed":{"t":1622187190691},"secret":{"t":1622187190691},"extra":{},"type":1},"CN_GUDO_ZH0253":{"id":"CN_GUDO_ZH0253","code":"ZH0253","locator":"CN_GUDO_ZH","body":{"birth":1990},"service":{},"charge":{},"character":{},"rating":{"t":1622187190691,"overall":70,"face":70,"shape":70},"status":{"t":1622187190691,"flag":1},"location":{"nation":"CN","province":"GUDO","city":"ZH","district":"吉大,南屏"},"feed":{"t":1622187190691},"secret":{"t":1622187190691},"extra":{},"type":1},"CN_GUDO_ZH0259":{"id":"CN_GUDO_ZH0259","code":"ZH0259","locator":"CN_GUDO_ZH","body":{"birth":1990},"service":{"open":33,"hand":16,"mouth":256},"charge":{},"character":{},"rating":{"t":1622187190691,"service":70},"status":{"t":1622187190691,"flag":1},"location":{"nation":"CN","province":"GUDO","city":"ZH","district":"拱北"},"feed":{"t":1622187190691},"secret":{"t":1622187190691},"extra":{},"type":1},"CN_GUDO_ZH0260":{"id":"CN_GUDO_ZH0260","code":"ZH0260","locator":"CN_GUDO_ZH","body":{"height":170,"chest":20,"birth":1995},"service":{},"charge":{},"character":{},"rating":{"t":1622187190691,"overall":85,"face":70,"shape":70,"service":70},"status":{"t":1622187190691,"flag":1},"location":{"nation":"CN","province":"GUDO","city":"ZH","district":"拱北,兰埔"},"feed":{"t":1622187190691},"secret":{"t":1622187190691},"extra":{},"type":1},"CN_GUDO_ZH0261":{"id":"CN_GUDO_ZH0261","code":"ZH0261","locator":"CN_GUDO_ZH","body":{"height":165,"birth":1990},"service":{},"charge":{},"character":{"type":32},"rating":{"t":1622187190691,"overall":70,"shape":70,"character":70,"slutty":70},"status":{"t":1622187190691,"flag":1},"location":{"nation":"CN","province":"GUDO","city":"ZH","district":"金湾"},"feed":{"t":1622187190691},"secret":{"t":1622187190691},"extra":{},"type":1},"CN_GUDO_ZH0265":{"id":"CN_GUDO_ZH0265","code":"ZH0265","locator":"CN_GUDO_ZH","body":{"height":160,"birth":2000},"service":{"flag":131072,"form":8},"charge":{},"character":{},"rating":{"t":1622187190691,"overall":70},"status":{"t":1622187190691,"flag":9},"location":{"nation":"CN","province":"GUDO","city":"ZH","district":"吉大"},"feed":{"t":1622187190691},"secret":{"t":1622187190691},"extra":{},"type":5},"CN_GUDO_ZH0266":{"id":"CN_GUDO_ZH0266","code":"ZH0266","locator":"CN_GUDO_ZH","body":{"chest":40,"birth":1995},"service":{"open":32,"mouth":256,"form":8},"charge":{},"character":{},"rating":{"t":1622187190691,"overall":70,"service":70,"character":70},"status":{"t":1622187190691,"flag":1},"location":{"nation":"CN","province":"GUDO","city":"ZH","district":"兰埔"},"feed":{"t":1622187190691},"secret":{"t":1622187190691},"extra":{},"type":1},"CN_GUDO_ZH0268":{"id":"CN_GUDO_ZH0268","code":"ZH0268","locator":"CN_GUDO_ZH","body":{"height":155,"birth":1990},"service":{"open":49,"hand":16,"mouth":272,"form":553648152},"charge":{},"character":{},"rating":{"t":1622187190691,"overall":70,"service":70,"character":70},"status":{"t":1622187190691,"flag":1},"location":{"nation":"CN","province":"GUDO","city":"ZH","district":"兰埔"},"feed":{"t":1622187190691},"secret":{"t":1622187190691},"extra":{},"type":1},"CN_GUDO_ZH0269":{"id":"CN_GUDO_ZH0269","code":"ZH0269","locator":"CN_GUDO_ZH","body":{"height":"157","chest":50,"birth":1985,"cosmetic":0,"weight":"50"},"service":{"open":512,"mouth":37363,"form":8,"hand":64,"body":16,"pubis":0,"tool":0},"charge":{},"character":{"type":32,"flag":0},"rating":{"t":1622187190691,"service":"85","character":"","slutty":"","body":"80"},"status":{"t":1622187190691,"flag":1},"location":{"nation":"CN","province":"GUDO","city":"ZH","district":"拱北","street":"口岸"},"feed":{"t":1622187190691},"secret":{"t":1622187190691},"extra":{},"type":1,"t":"1622300000000","name":"婷婷"},"CN_GUDO_ZH0270":{"id":"CN_GUDO_ZH0270","code":"ZH0270","locator":"CN_GUDO_ZH","body":{"height":155,"birth":1990},"service":{"open":49,"hand":17,"mouth":272},"charge":{},"character":{},"rating":{"t":1622187190691,"overall":70,"service":70,"character":70,"massage":70},"status":{"t":1622187190691,"flag":1},"location":{"nation":"CN","province":"GUDO","city":"ZH","district":"拱北"},"feed":{"t":1622187190691},"secret":{"t":1622187190691},"extra":{},"type":1},"CN_GUDO_ZH0271":{"id":"CN_GUDO_ZH0271","code":"ZH0271","locator":"CN_GUDO_ZH","body":{"height":160,"chest":30,"birth":1995},"service":{"open":32,"mouth":256},"charge":{},"character":{"type":32},"rating":{"t":1622187190691,"overall":85,"face":70,"shape":70,"character":70,"slutty":70},"status":{"t":1622187190691,"flag":1},"location":{"nation":"CN","province":"GUDO","city":"ZH","district":"拱北,兰埔"},"feed":{"t":1622187190691},"secret":{"t":1622187190691},"extra":{},"type":1},"CN_GUDO_ZH0274":{"id":"CN_GUDO_ZH0274","code":"ZH0274","locator":"CN_GUDO_ZH","body":{"height":165,"birth":1995},"service":{},"charge":{},"character":{},"rating":{"t":1622187190691,"overall":70,"shape":70,"service":70},"status":{"t":1622187190691,"flag":1},"location":{"nation":"CN","province":"GUDO","city":"ZH","district":"夏湾,前山"},"feed":{"t":1622187190691},"secret":{"t":1622187190691},"extra":{},"type":1},"CN_GUDO_ZH0275":{"id":"CN_GUDO_ZH0275","code":"ZH0275","locator":"CN_GUDO_ZH","body":{"height":160,"birth":1995},"service":{},"charge":{},"character":{},"rating":{"t":1622187190691,"overall":70,"face":70,"shape":70,"service":70},"status":{"t":1622187190691,"flag":1},"location":{"nation":"CN","province":"GUDO","city":"ZH","district":"拱北,兰埔"},"feed":{"t":1622187190691},"secret":{"t":1622187190691},"extra":{},"type":1},"CN_GUDO_ZH0278":{"id":"CN_GUDO_ZH0278","code":"ZH0278","locator":"CN_GUDO_ZH","body":{"height":160,"chest":20,"birth":1995},"service":{},"charge":{},"character":{},"rating":{"t":1622187190691,"shape":70},"status":{"t":1622187190691,"flag":1},"location":{"nation":"CN","province":"GUDO","city":"ZH","district":"吉大"},"feed":{"t":1622187190691},"secret":{"t":1622187190691},"extra":{},"type":1},"CN_GUDO_ZH0279":{"id":"CN_GUDO_ZH0279","code":"ZH0279","locator":"CN_GUDO_ZH","body":{"height":"158","chest":30,"birth":"1991","cosmetic":0,"weight":"45"},"service":{"open":305,"hand":113,"mouth":45456,"body":0,"pubis":0,"tool":0,"form":0},"charge":{"h3":"250","x1":""},"character":{"type":32,"flag":0},"rating":{"t":1622187190691,"overall":"85","shape":70,"service":"90","slutty":"","massage":"","attitude":"90","mouth":"80"},"status":{"t":1622187190691,"flag":1},"location":{"nation":"CN","province":"GUDO","city":"ZH","district":"拱北","street":"口岸"},"feed":{"t":1622187190691},"secret":{"t":1622187190691},"extra":{},"type":1,"name":"雨雨","desc":"全套和妹谈","t":1622312751354},"CN_GUDO_ZH0280":{"id":"CN_GUDO_ZH0280","code":"ZH0280","locator":"CN_GUDO_ZH","body":{"height":160,"chest":30,"birth":1995},"service":{"form":4},"charge":{},"character":{},"rating":{"t":1622187190691,"service":70},"status":{"t":1622187190691,"flag":1},"location":{"nation":"CN","province":"GUDO","city":"ZH","district":"拱北"},"feed":{"t":1622187190691},"secret":{"t":1622187190691},"extra":{},"type":1},"CN_GUDO_ZH0282":{"id":"CN_GUDO_ZH0282","code":"ZH0282","locator":"CN_GUDO_ZH","body":{"height":165,"chest":20,"birth":"1993","weight":"50"},"service":{"pubis":1048576,"mouth":32915},"charge":{"cumshot":"300","x1":"400"},"character":{"type":32},"rating":{"t":1622187190691,"overall":85,"face":70,"shape":70,"character":70,"slutty":70},"status":{"t":1622187190691,"flag":1},"location":{"nation":"CN","province":"GUDO","city":"ZH","district":"拱北,兰埔","street":"摩尔广场"},"feed":{"t":1622187190691},"secret":{"t":1622187190691},"extra":{},"type":1,"t":1622311614848},"CN_GUDO_ZH0283":{"id":"CN_GUDO_ZH0283","code":"ZH0283","locator":"CN_GUDO_ZH","body":{"height":155,"chest":20,"birth":1995},"service":{},"charge":{},"character":{},"rating":{"t":1622187190691,"overall":70,"shape":70,"service":70},"status":{"t":1622187190691,"flag":1},"location":{"nation":"CN","province":"GUDO","city":"ZH","district":"拱北"},"feed":{"t":1622187190691},"secret":{"t":1622187190691},"extra":{},"type":1},"CN_GUDO_ZH0284":{"id":"CN_GUDO_ZH0284","code":"ZH0284","locator":"CN_GUDO_ZH","body":{"height":160,"chest":20,"birth":1980},"service":{"flag":131072,"pubis":1048576},"charge":{},"character":{},"rating":{"t":1622187190691,"character":70},"status":{"t":1622187190691,"flag":1},"location":{"nation":"CN","province":"GUDO","city":"ZH","district":"斗门"},"feed":{"t":1622187190691},"secret":{"t":1622187190691},"extra":{},"type":1},"CN_GUDO_ZH0285":{"id":"CN_GUDO_ZH0285","code":"ZH0285","locator":"CN_GUDO_ZH","body":{"height":160,"chest":40,"birth":1990},"service":{},"charge":{},"character":{"type":32},"rating":{"t":1622187190691,"overall":85,"shape":70,"character":70,"slutty":70},"status":{"t":1622187190691,"flag":9},"location":{"nation":"CN","province":"GUDO","city":"ZH","district":"夏湾"},"feed":{"t":1622187190691},"secret":{"t":1622187190691},"extra":{},"type":21},"CN_GUDO_ZH0286":{"id":"CN_GUDO_ZH0286","code":"ZH0286","locator":"CN_GUDO_ZH","body":{"height":160,"chest":20,"birth":1990},"service":{},"charge":{},"character":{"type":32},"rating":{"t":1622187190691,"overall":70,"shape":70,"character":70,"slutty":70},"status":{"t":1622187190691,"flag":1},"location":{"nation":"CN","province":"GUDO","city":"ZH","district":"兰埔"},"feed":{"t":1622187190691},"secret":{"t":1622187190691},"extra":{},"type":1},"CN_GUDO_ZH0288":{"id":"CN_GUDO_ZH0288","code":"ZH0288","locator":"CN_GUDO_ZH","body":{"height":165,"chest":30,"birth":1990},"service":{},"charge":{},"character":{},"rating":{"t":1622187190691,"overall":70,"shape":70,"service":70,"character":70},"status":{"t":1622187190691,"flag":1},"location":{"nation":"CN","province":"GUDO","city":"ZH","district":"拱北"},"feed":{"t":1622187190691},"secret":{"t":1622187190691},"extra":{},"type":1},"CN_GUDO_ZH0290":{"id":"CN_GUDO_ZH0290","code":"ZH0290","locator":"CN_GUDO_ZH","body":{"height":"158","chest":"25","birth":1995,"cosmetic":0,"weight":"46"},"service":{"open":0,"mouth":33232,"hand":96,"body":16,"pubis":0,"tool":0,"form":0},"charge":{"n1":"400","x1":"600","g1":"800"},"character":{"flag":0},"rating":{"t":1622187190691,"service":70},"status":{"t":1622187190691,"flag":1},"location":{"nation":"CN","province":"GUDO","city":"ZH","district":"斗门","street":"白蕉"},"feed":{"t":1622187190691},"secret":{"t":1622187190691},"extra":{},"type":1},"CN_GUDO_ZH0292":{"id":"CN_GUDO_ZH0292","code":"ZH0292","locator":"CN_GUDO_ZH","body":{"height":"163","chest":30,"birth":"1998","cosmetic":0,"weight":"50"},"service":{"form":8,"open":256,"mouth":144,"hand":64,"body":0,"pubis":0,"tool":0},"charge":{"x1":"500","night1":"2500"},"character":{"type":32,"flag":128},"rating":{"t":1622187190691,"overall":"75","shape":"75","character":"85","slutty":""},"status":{"t":1622187190691,"flag":1056},"location":{"nation":"CN","province":"GUDO","city":"ZH","district":"吉大"},"feed":{"t":1622187190691},"secret":{"t":1622187190691},"extra":{},"type":17},"CN_GUDO_ZH0294":{"id":"CN_GUDO_ZH0294","code":"ZH0294","locator":"CN_GUDO_ZH","body":{"height":165,"chest":30,"birth":"1988","cosmetic":0,"weight":"49"},"service":{"open":0,"mouth":144,"hand":72,"body":0,"pubis":0,"tool":0,"form":0},"charge":{"x1":"500"},"character":{"flag":0},"rating":{"t":1622187190692,"overall":70,"shape":"80"},"status":{"t":1622187190692,"flag":13},"location":{"nation":"CN","province":"GUDO","city":"ZH","district":"金湾,不定区,上门"},"feed":{"t":1622187190692},"secret":{"t":1622187190692},"extra":{},"type":5},"CN_GUDO_ZH0295":{"id":"CN_GUDO_ZH0295","code":"ZH0295","locator":"CN_GUDO_ZH","body":{"height":160,"chest":30,"birth":1985},"service":{"open":32,"mouth":256,"pubis":65536},"charge":{},"character":{},"rating":{"t":1622187190692,"service":70,"character":70},"status":{"t":1622187190692,"flag":1},"location":{"nation":"CN","province":"GUDO","city":"ZH","district":"拱北,兰埔"},"feed":{"t":1622187190692},"secret":{"t":1622187190692},"extra":{},"type":1},"CN_GUDO_ZH0296":{"id":"CN_GUDO_ZH0296","code":"ZH0296","locator":"CN_GUDO_ZH","body":{"height":160,"chest":40,"birth":1995},"service":{"open":1,"hand":16},"charge":{},"character":{},"rating":{"t":1622187190692,"overall":70,"shape":70},"status":{"t":1622187190692,"flag":1},"location":{"nation":"CN","province":"GUDO","city":"ZH","district":"夏湾,前山"},"feed":{"t":1622187190692},"secret":{"t":1622187190692},"extra":{},"type":1},"CN_GUDO_ZH0298":{"id":"CN_GUDO_ZH0298","code":"ZH0298","locator":"CN_GUDO_ZH","body":{"height":"163","chest":30,"birth":"1996","cosmetic":0,"weight":"50"},"service":{"open":288,"hand":112,"mouth":37328,"body":18,"pubis":0,"tool":0,"form":0},"charge":{"h3":"280","x1":"","g1":"400"},"character":{"flag":0},"rating":{"t":1622187190692,"overall":85,"shape":"90","service":"85","attitude":"80","mouth":"90"},"status":{"t":1622187190692,"flag":17},"location":{"nation":"CN","province":"GUDO","city":"ZH","district":"拱北","street":"口岸"},"feed":{"t":1622187190692},"secret":{"t":1622187190692},"extra":{},"type":1,"t":1622348391030,"desc":"","name":"宝宝"},"CN_GUDO_ZH0299":{"id":"CN_GUDO_ZH0299","code":"ZH0299","locator":"CN_GUDO_ZH","body":{"height":"173","chest":20,"birth":"2004","cosmetic":0,"weight":"50"},"service":{"form":8,"open":256,"mouth":0,"hand":0,"body":0,"pubis":1,"tool":0},"charge":{"n1":"400","night1":"1600"},"character":{"flag":0},"rating":{"t":1622187190692,"leg":"90","young":"95"},"status":{"t":1622187190692,"flag":9},"location":{"nation":"CN","province":"GUDO","city":"ZH","district":"坦洲"},"feed":{"t":1622187190692},"secret":{"t":1622187190692},"extra":{},"type":4101,"desc":"学生兼职，颜值一般，高妹"},"CN_GUDO_ZH0301":{"id":"CN_GUDO_ZH0301","code":"ZH0301","locator":"CN_GUDO_ZH","body":{"height":155,"chest":20,"birth":1990},"service":{},"charge":{},"character":{},"rating":{"t":1622187190692,"service":70,"character":70},"status":{"t":1622187190692,"flag":1},"location":{"nation":"CN","province":"GUDO","city":"ZH","district":"斗门"},"feed":{"t":1622187190692},"secret":{"t":1622187190692},"extra":{},"type":1},"CN_GUDO_ZH0302":{"id":"CN_GUDO_ZH0302","code":"ZH0302","locator":"CN_GUDO_ZH","body":{"height":160,"chest":30,"birth":1990},"service":{},"charge":{},"character":{},"rating":{"t":1622187190692},"status":{"t":1622187190692,"flag":1},"location":{"nation":"CN","province":"GUDO","city":"ZH","district":"拱北,兰埔"},"feed":{"t":1622187190692},"secret":{"t":1622187190692},"extra":{},"type":1},"CN_GUDO_ZH0304":{"id":"CN_GUDO_ZH0304","code":"ZH0304","locator":"CN_GUDO_ZH","body":{"height":160,"chest":20,"birth":1995},"service":{"open":19,"hand":16,"body":256,"mouth":16},"charge":{},"character":{},"rating":{"t":1622187190692,"shape":70,"service":70},"status":{"t":1622187190692,"flag":1},"location":{"nation":"CN","province":"GUDO","city":"ZH","district":"香洲,湾仔"},"feed":{"t":1622187190692},"secret":{"t":1622187190692},"extra":{},"type":1},"CN_GUDO_ZH0305":{"id":"CN_GUDO_ZH0305","code":"ZH0305","locator":"CN_GUDO_ZH","body":{"height":160,"chest":30,"birth":1985},"service":{},"charge":{},"character":{"type":32},"rating":{"t":1622187190692,"overall":70,"shape":70,"service":70,"character":70,"slutty":70},"status":{"t":1622187190692,"flag":1},"location":{"nation":"CN","province":"GUDO","city":"ZH","district":"金湾,上门"},"feed":{"t":1622187190692},"secret":{"t":1622187190692},"extra":{},"type":1},"CN_GUDO_ZH0307":{"id":"CN_GUDO_ZH0307","code":"ZH0307","locator":"CN_GUDO_ZH","body":{"height":"158","chest":30,"weight":"45","birth":"1998"},"service":{"open":1,"hand":51,"mouth":4096},"charge":{"h1":"248"},"character":{"flag":384},"rating":{"t":1622187190692,"overall":85,"face":"80","shape":70,"character":"90","service":"80"},"status":{"t":1622187190692,"flag":1},"location":{"nation":"CN","province":"GUDO","city":"ZH","district":"夏湾,前山","street":"中安广场"},"feed":{"t":1622187190692},"secret":{"t":1622187190692},"extra":{},"type":1,"desc":"其他和妹谈 (口和做)","t":1622311619721},"CN_GUDO_ZH0308":{"id":"CN_GUDO_ZH0308","code":"ZH0308","locator":"CN_GUDO_ZH","body":{"height":160,"chest":40,"birth":1995},"service":{"open":32,"mouth":256,"form":8},"charge":{},"character":{},"rating":{"t":1622187190692,"overall":85,"shape":70,"service":70,"character":70},"status":{"t":1622187190692,"flag":1},"location":{"nation":"CN","province":"GUDO","city":"ZH","district":"吉大"},"feed":{"t":1622187190692},"secret":{"t":1622187190692},"extra":{},"type":1},"CN_GUDO_ZH0309":{"id":"CN_GUDO_ZH0309","code":"ZH0309","locator":"CN_GUDO_ZH","body":{"height":160,"chest":30,"birth":1980},"service":{"open":32,"mouth":256,"pubis":65536,"form":4},"charge":{},"character":{},"rating":{"t":1622187190692,"overall":70,"service":70},"status":{"t":1622187190692,"flag":1},"location":{"nation":"CN","province":"GUDO","city":"ZH","district":"坦洲"},"feed":{"t":1622187190692},"secret":{"t":1622187190692},"extra":{},"type":1},"CN_GUDO_ZH0310":{"id":"CN_GUDO_ZH0310","code":"ZH0310","locator":"CN_GUDO_ZH","body":{"height":"158","chest":20,"birth":1995,"cosmetic":0,"weight":"48"},"service":{"open":32,"hand":120,"mouth":45328,"body":16,"pubis":0,"tool":0,"form":0},"charge":{"h3":"300"},"character":{"flag":0},"rating":{"t":1622187190692,"overall":70,"service":70},"status":{"t":1622187190692,"flag":1},"location":{"nation":"CN","province":"GUDO","city":"ZH","district":"南屏"},"feed":{"t":1622187190692},"secret":{"t":1622187190692},"extra":{},"type":1},"CN_GUDO_ZH0311":{"id":"CN_GUDO_ZH0311","code":"ZH0311","locator":"CN_GUDO_ZH","body":{"height":155,"chest":20,"birth":1995,"cosmetic":0},"service":{"open":1,"hand":115,"mouth":4096,"body":0,"pubis":0,"tool":0,"form":0},"charge":{"h1":"248"},"character":{"flag":448},"rating":{"t":1622187190692,"overall":85,"face":"80","character":"85","attitude":"85"},"status":{"t":1622187190692,"flag":1},"location":{"nation":"CN","province":"GUDO","city":"ZH","district":"夏湾,前山"},"feed":{"t":1622187190692},"secret":{"t":1622187190692},"extra":{},"type":1},"CN_GUDO_ZH0312":{"id":"CN_GUDO_ZH0312","code":"ZH0312","locator":"CN_GUDO_ZH","body":{"height":165,"chest":30,"birth":1985},"service":{"open":49,"hand":16,"mouth":272},"charge":{},"character":{},"rating":{"t":1622187190692,"overall":70,"service":70},"status":{"t":1622187190692,"flag":1},"location":{"nation":"CN","province":"GUDO","city":"ZH","district":"拱北"},"feed":{"t":1622187190692},"secret":{"t":1622187190692},"extra":{},"type":1},"CN_GUDO_ZH0313":{"id":"CN_GUDO_ZH0313","code":"ZH0313","locator":"CN_GUDO_ZH","body":{"height":160,"chest":20,"birth":1995,"cosmetic":0},"service":{"open":32,"hand":112,"mouth":400,"body":16,"pubis":0,"tool":0,"form":0},"charge":{"h3":"280"},"character":{"flag":0},"rating":{"t":1622187190692,"overall":85,"face":"85","service":"80","character":"85","attitude":"85"},"status":{"t":1622187190692,"flag":1056},"location":{"nation":"CN","province":"GUDO","city":"ZH","district":"拱北"},"feed":{"t":1622187190692},"secret":{"t":1622187190692},"extra":{},"type":1},"CN_GUDO_ZH0315":{"id":"CN_GUDO_ZH0315","code":"ZH0315","locator":"CN_GUDO_ZH","body":{"height":160,"chest":20,"birth":1995,"cosmetic":0,"weight":"48"},"service":{"open":49,"hand":112,"mouth":37328,"body":0,"pubis":0,"tool":0,"form":0},"charge":{"h3":"280","x1":"450"},"character":{"flag":0},"rating":{"t":1622187190692,"overall":85,"face":"75","service":"85","character":"80","attitude":"80","mouth":"90"},"status":{"t":1622187190692,"flag":1},"location":{"nation":"CN","province":"GUDO","city":"ZH","district":"拱北"},"feed":{"t":1622187190692},"secret":{"t":1622187190692},"extra":{},"type":1,"t":1622343991715},"CN_GUDO_ZH0316":{"id":"CN_GUDO_ZH0316","code":"ZH0316","locator":"CN_GUDO_ZH","body":{"height":160,"chest":30,"cosmetic":1,"birth":1995},"service":{"open":32,"mouth":256,"hand":0,"body":0,"pubis":0,"tool":0,"form":0},"charge":{"x1":"400"},"character":{"flag":0},"rating":{"t":1622187190692,"overall":70,"service":"80","character":"80","attitude":"80","shape":"80"},"status":{"t":1622187190692,"flag":1},"location":{"nation":"CN","province":"GUDO","city":"ZH","district":"拱北"},"feed":{"t":1622187190692},"secret":{"t":1622187190692},"extra":{},"type":1},"CN_GUDO_ZH0317":{"id":"CN_GUDO_ZH0317","code":"ZH0317","locator":"CN_GUDO_ZH","body":{"height":"157","chest":20,"birth":1990,"cosmetic":0,"weight":"43"},"service":{"form":8,"open":0,"mouth":37040,"hand":1,"body":16,"pubis":0,"tool":0},"charge":{"night1":"1000","x1":"300"},"character":{"flag":0},"rating":{"t":1622187190692,"overall":"75","service":"80","character":"80","attitude":"80"},"status":{"t":1622187190692,"flag":1},"location":{"nation":"CN","province":"GUDO","city":"ZH","district":"前山"},"feed":{"t":1622187190692},"secret":{"t":1622187190692},"extra":{},"type":1},"CN_GUDO_ZH0320":{"id":"CN_GUDO_ZH0320","code":"ZH0320","locator":"CN_GUDO_ZH","body":{"height":155,"chest":20,"birth":"1996","cosmetic":0},"service":{"open":0,"mouth":16,"hand":64,"body":0,"pubis":0,"tool":0,"form":0},"charge":{"x1":"400"},"character":{"flag":0},"rating":{"t":1622187190692,"overall":70,"face":70,"character":70},"status":{"t":1622187190692,"flag":9},"location":{"nation":"CN","province":"GUDO","city":"ZH","district":"南屏"},"feed":{"t":1622187190692},"secret":{"t":1622187190692},"extra":{},"type":5},"CN_GUDO_ZH0321":{"id":"CN_GUDO_ZH0321","code":"ZH0321","locator":"CN_GUDO_ZH","body":{"height":160,"chest":30,"birth":1995,"weight":"48","cosmetic":0},"service":{"form":8,"mouth":144,"open":256,"hand":64,"body":0,"pubis":0,"tool":0},"charge":{"n1":"400"},"character":{"flag":128},"rating":{"t":1622187190692,"overall":85,"face":"80","character":"80"},"status":{"t":1622187190692,"flag":1},"location":{"nation":"CN","province":"GUDO","city":"ZH","district":"夏湾,前山","street":"中安广场"},"feed":{"t":1622187190692},"secret":{"t":1622187190692},"extra":{},"type":17,"t":1622312867560},"CN_GUDO_ZH0323":{"id":"CN_GUDO_ZH0323","code":"ZH0323","locator":"CN_GUDO_ZH","body":{"height":160,"chest":20,"birth":1995,"cosmetic":0},"service":{"open":256,"mouth":272,"hand":64,"body":0,"pubis":0,"tool":0,"form":0},"charge":{"x1":"400"},"character":{"flag":0},"rating":{"t":1622187190692},"status":{"t":1622187190692,"flag":64},"location":{"nation":"CN","province":"GUDO","city":"ZH","district":"拱北"},"feed":{"t":1622187190692},"secret":{"t":1622187190692},"extra":{},"type":1},"CN_GUDO_ZH0324":{"id":"CN_GUDO_ZH0324","code":"ZH0324","locator":"CN_GUDO_ZH","body":{"height":160,"chest":20,"birth":1995},"service":{"open":1,"hand":17},"charge":{},"character":{},"rating":{"t":1622187190692,"overall":70,"massage":70},"status":{"t":1622187190692,"flag":1},"location":{"nation":"CN","province":"GUDO","city":"ZH","district":"拱北"},"feed":{"t":1622187190692},"secret":{"t":1622187190692},"extra":{},"type":1},"CN_GUDO_ZH0327":{"id":"CN_GUDO_ZH0327","code":"ZH0327","locator":"CN_GUDO_ZH","body":{"height":160,"chest":30,"cosmetic":1,"birth":"1991","weight":"50"},"service":{"open":0,"mouth":45296,"hand":64,"body":16,"pubis":0,"tool":0,"form":0},"charge":{"g1":"350"},"character":{"flag":0},"rating":{"t":1622187190692,"overall":85,"service":"90","attitude":"90","character":"80"},"status":{"t":1622187190692,"flag":1},"location":{"nation":"CN","province":"GUDO","city":"ZH","district":"拱北"},"feed":{"t":1622187190692},"secret":{"t":1622187190692},"extra":{},"type":1,"name":"文文"},"CN_GUDO_ZH0329":{"id":"CN_GUDO_ZH0329","code":"ZH0329","locator":"CN_GUDO_ZH","body":{"height":160,"chest":20,"birth":2000},"service":{"form":8},"charge":{},"character":{},"rating":{"t":1622187190692},"status":{"t":1622187190692,"flag":9},"location":{"nation":"CN","province":"GUDO","city":"ZH","district":"拱北,兰埔,上门"},"feed":{"t":1622187190692},"secret":{"t":1622187190692},"extra":{},"type":5},"CN_GUDO_ZH0330":{"id":"CN_GUDO_ZH0330","code":"ZH0330","locator":"CN_GUDO_ZH","body":{"height":"161","chest":20,"birth":"1998","cosmetic":0,"weight":"47"},"service":{"open":1,"hand":112,"mouth":4096,"body":0,"pubis":0,"tool":0,"form":0},"charge":{"h1":"250"},"character":{"flag":0},"rating":{"t":1622187190692,"overall":70,"face":"85"},"status":{"t":1622187190692,"flag":1},"location":{"nation":"CN","province":"GUDO","city":"ZH","district":"拱北","street":"口岸"},"feed":{"t":1622187190692},"secret":{"t":1622187190692},"extra":{},"type":1,"name":"熙熙","t":1622312858911},"CN_GUDO_ZH0331":{"id":"CN_GUDO_ZH0331","code":"ZH0331","locator":"CN_GUDO_ZH","body":{"height":160,"chest":40,"birth":1995},"service":{},"charge":{},"character":{},"rating":{"t":1622187190692,"overall":70,"service":70},"status":{"t":1622187190692,"flag":1},"location":{"nation":"CN","province":"GUDO","city":"ZH","district":"拱北"},"feed":{"t":1622187190692},"secret":{"t":1622187190692},"extra":{},"type":1},"CN_GUDO_ZH0332":{"id":"CN_GUDO_ZH0332","code":"ZH0332","locator":"CN_GUDO_ZH","body":{"height":"158","chest":20,"birth":1990,"weight":"43","cosmetic":0},"service":{"open":1,"hand":51,"mouth":4096,"body":0,"pubis":0,"tool":0,"form":0},"charge":{"h1":"250"},"character":{"flag":256},"rating":{"t":1622187190692,"overall":"80","massage":"90","character":"80","attitude":"80"},"status":{"t":1622187190692,"flag":1},"location":{"nation":"CN","province":"GUDO","city":"ZH","district":"拱北"},"feed":{"t":1622187190692},"secret":{"t":1622187190692},"extra":{},"type":1,"t":1622312848589},"CN_GUDO_ZH0334":{"id":"CN_GUDO_ZH0334","code":"ZH0334","locator":"CN_GUDO_ZH","body":{"height":155,"chest":20,"birth":1995,"cosmetic":0},"service":{"open":305,"hand":113,"mouth":4560,"body":16,"pubis":0,"tool":0,"form":0},"charge":{"h3":"280","x1":"400"},"character":{"flag":0},"rating":{"t":1622187190692,"overall":"75","service":"85","massage":""},"status":{"t":1622187190692,"flag":1},"location":{"nation":"CN","province":"GUDO","city":"ZH","district":"拱北"},"feed":{"t":1622187190692},"secret":{"t":1622187190692},"extra":{},"type":1,"t":1622134925000},"CN_GUDO_ZH0335":{"id":"CN_GUDO_ZH0335","code":"ZH0335","locator":"CN_GUDO_ZH","body":{"height":160,"chest":40,"birth":"1987","cosmetic":0,"weight":"52"},"service":{"form":8,"open":256,"mouth":400,"hand":64,"body":16,"pubis":2097152,"tool":0},"charge":{"x1":"500"},"character":{"type":32,"flag":32},"rating":{"t":1622187190692,"overall":"","slutty":""},"status":{"t":1622187190692,"flag":1},"location":{"nation":"CN","province":"GUDO","city":"ZH","district":"拱北"},"feed":{"t":1622187190692},"secret":{"t":1622187190692},"extra":{},"type":1},"CN_GUDO_ZH0337":{"id":"CN_GUDO_ZH0337","code":"ZH0337","locator":"CN_GUDO_ZH","body":{"height":160,"chest":30,"birth":1985},"service":{},"charge":{},"character":{},"rating":{"t":1622187190692,"overall":70,"service":70,"character":70},"status":{"t":1622187190692,"flag":1},"location":{"nation":"CN","province":"GUDO","city":"ZH","district":"拱北"},"feed":{"t":1622187190692},"secret":{"t":1622187190692},"extra":{},"type":1},"CN_GUDO_ZH0339":{"id":"CN_GUDO_ZH0339","code":"ZH0339","locator":"CN_GUDO_ZH","body":{"height":160,"chest":20,"birth":1995},"service":{"open":1,"hand":16},"charge":{},"character":{},"rating":{"t":1622187190692,"overall":70,"shape":70,"character":70},"status":{"t":1622187190692,"flag":1},"location":{"nation":"CN","province":"GUDO","city":"ZH","district":"拱北"},"feed":{"t":1622187190692},"secret":{"t":1622187190692},"extra":{},"type":1},"CN_GUDO_ZH0340":{"id":"CN_GUDO_ZH0340","code":"ZH0340","locator":"CN_GUDO_ZH","body":{"height":"162","chest":30,"birth":"1988","cosmetic":0,"weight":"50"},"service":{"open":0,"mouth":4288,"hand":72,"body":16,"pubis":0,"tool":0,"form":0},"charge":{"x1":"350"},"character":{"flag":0},"rating":{"t":1622187190692,"service":"75","character":70},"status":{"t":1622187190692,"flag":1},"location":{"nation":"CN","province":"GUDO","city":"ZH","district":"拱北","street":"口岸"},"feed":{"t":1622187190692},"secret":{"t":1622187190692},"extra":{},"type":1},"CN_GUDO_ZH0341":{"id":"CN_GUDO_ZH0341","code":"ZH0341","locator":"CN_GUDO_ZH","body":{"height":160,"chest":30,"birth":1995,"cosmetic":0},"service":{"form":8,"open":256,"mouth":16,"hand":64,"body":0,"pubis":0,"tool":0},"charge":{"x1":"400"},"character":{"flag":0},"rating":{"t":1622187190692},"status":{"t":1622187190692,"flag":64},"location":{"nation":"CN","province":"GUDO","city":"ZH","district":"拱北"},"feed":{"t":1622187190692},"secret":{"t":1622187190692},"extra":{},"type":1},"CN_GUDO_ZH0342":{"id":"CN_GUDO_ZH0342","code":"ZH0342","locator":"CN_GUDO_ZH","body":{"height":"161","chest":20,"birth":2000,"weight":"45","cosmetic":0},"service":{"form":8,"mouth":16,"open":0,"hand":64,"body":0,"pubis":0,"tool":0},"charge":{"n1":"400","night1":"3000"},"character":{"flag":2432},"rating":{"t":1622187190692,"overall":85,"face":"75","character":"80"},"status":{"t":1622187190692,"flag":257},"location":{"nation":"CN","province":"GUDO","city":"ZH","district":"拱北"},"feed":{"t":1622187190692},"secret":{"t":1622187190692},"extra":{},"type":1},"CN_GUDO_ZH0343":{"id":"CN_GUDO_ZH0343","code":"ZH0343","locator":"CN_GUDO_ZH","body":{"height":170,"chest":40,"cosmetic":0},"service":{"form":8,"open":0,"mouth":4112,"hand":64,"body":16,"pubis":0,"tool":0},"charge":{"x1":"400"},"character":{"flag":0},"rating":{"t":1622187190692},"status":{"t":1622187190692,"flag":64},"location":{"nation":"CN","province":"GUDO","city":"ZH","district":"夏湾,前山"},"feed":{"t":1622187190692},"secret":{"t":1622187190692},"extra":{},"type":1},"CN_GUDO_ZH0344":{"id":"CN_GUDO_ZH0344","code":"ZH0344","locator":"CN_GUDO_ZH","body":{"height":155,"chest":20,"birth":1995,"cosmetic":0},"service":{"open":17,"hand":115,"mouth":4112,"body":0,"pubis":0,"tool":0,"form":0},"charge":{"h2":"230"},"character":{"flag":0},"rating":{"t":1622187190692,"overall":70,"massage":"85"},"status":{"t":1622187190692,"flag":1},"location":{"nation":"CN","province":"GUDO","city":"ZH","district":"拱北,兰埔"},"feed":{"t":1622187190692},"secret":{"t":1622187190692},"extra":{},"type":1},"CN_GUDO_ZH0346":{"id":"CN_GUDO_ZH0346","code":"ZH0346","locator":"CN_GUDO_ZH","body":{"height":165,"chest":20,"birth":1995,"cosmetic":0},"service":{"open":0,"mouth":144,"hand":0,"body":0,"pubis":0,"tool":0,"form":0},"charge":{"n1":"500"},"character":{"type":32,"flag":16512},"rating":{"t":1622187190692,"overall":70,"shape":"85","character":"","slutty":"85","attitude":"75"},"status":{"t":1622187190692,"flag":1056},"location":{"nation":"CN","province":"GUDO","city":"ZH","district":"拱北,夏湾"},"feed":{"t":1622187190692},"secret":{"t":1622187190692},"extra":{},"type":1},"CN_GUDO_ZH0347":{"id":"CN_GUDO_ZH0347","code":"ZH0347","locator":"CN_GUDO_ZH","body":{"chest":30,"birth":2000,"cosmetic":0,"height":"160","weight":"50"},"service":{"open":1,"hand":115,"mouth":0,"body":0,"pubis":0,"tool":0,"form":0},"charge":{"h1":"250"},"character":{"flag":0},"rating":{"t":1622187190692,"face":70},"status":{"t":1622187190692,"flag":1},"location":{"nation":"CN","province":"GUDO","city":"ZH","district":"拱北"},"feed":{"t":1622187190692},"secret":{"t":1622187190692},"extra":{},"type":1},"CN_GUDO_ZH0350":{"id":"CN_GUDO_ZH0350","code":"ZH0350","locator":"CN_GUDO_ZH","body":{"height":160,"chest":30,"birth":1990,"cosmetic":0},"service":{"open":49,"hand":120,"mouth":336,"body":16,"pubis":0,"tool":0,"form":0},"charge":{"h3":"238"},"character":{"flag":128},"rating":{"t":1622187190692,"overall":85,"shape":70,"service":70,"character":70},"status":{"t":1622187190692,"flag":1056},"location":{"nation":"CN","province":"GUDO","city":"ZH","district":"拱北"},"feed":{"t":1622187190692},"secret":{"t":1622187190692},"extra":{},"type":1},"CN_GUDO_ZH0351":{"id":"CN_GUDO_ZH0351","code":"ZH0351","locator":"CN_GUDO_ZH","body":{"height":160,"chest":40,"birth":1995,"cosmetic":0},"service":{"open":49,"hand":48,"mouth":45520,"body":0,"pubis":0,"tool":0,"form":0},"charge":{"h3":"268"},"character":{"flag":0},"rating":{"t":1622187190692,"overall":85,"service":"90","mouth":"90"},"status":{"t":1622187190692,"flag":32},"location":{"nation":"CN","province":"GUDO","city":"ZH","district":"拱北"},"feed":{"t":1622187190692},"secret":{"t":1622187190692},"extra":{},"type":1},"CN_GUDO_ZH0353":{"id":"CN_GUDO_ZH0353","code":"ZH0353","locator":"CN_GUDO_ZH","body":{"height":"162","chest":30,"birth":"1991","cosmetic":0,"weight":"49"},"service":{"open":33,"hand":24,"mouth":4432,"body":0,"pubis":0,"tool":0,"form":0},"charge":{"h1":"230","h3":"280"},"character":{"flag":0},"rating":{"t":1622187190692,"overall":70,"face":70,"shape":70,"character":70},"status":{"t":1622187190692,"flag":1},"location":{"nation":"CN","province":"GUDO","city":"ZH","district":"拱北,兰埔"},"feed":{"t":1622187190692},"secret":{"t":1622187190692},"extra":{},"type":1},"CN_GUDO_ZH7001":{"id":"CN_GUDO_ZH7001","code":"ZH7001","locator":"CN_GUDO_ZH","body":{"birth":2000},"service":{},"charge":{},"character":{},"rating":{"t":1622187190692},"status":{"t":1622187190692,"flag":1},"location":{"nation":"CN","province":"GUDO","city":"ZH","district":"前山"},"feed":{"t":1622187190692},"secret":{"t":1622187190692},"extra":{},"type":2},"CN_GUDO_ZH7002":{"id":"CN_GUDO_ZH7002","code":"ZH7002","locator":"CN_GUDO_ZH","body":{"birth":2000},"service":{},"charge":{},"character":{},"rating":{"t":1622187190692},"status":{"t":1622187190692,"flag":1},"location":{"nation":"CN","province":"GUDO","city":"ZH","district":"唐家"},"feed":{"t":1622187190692},"secret":{"t":1622187190692},"extra":{},"type":2},"CN_GUDO_ZH7003":{"id":"CN_GUDO_ZH7003","code":"ZH7003","locator":"CN_GUDO_ZH","body":{"birth":2000},"service":{},"charge":{},"character":{},"rating":{"t":1622187190692},"status":{"t":1622187190692,"flag":1},"location":{"nation":"CN","province":"GUDO","city":"ZH","district":"明珠/上沖"},"feed":{"t":1622187190692},"secret":{"t":1622187190692},"extra":{},"type":2},"CN_GUDO_ZH7004":{"id":"CN_GUDO_ZH7004","code":"ZH7004","locator":"CN_GUDO_ZH","body":{"birth":2005},"service":{},"charge":{},"character":{},"rating":{"t":1622187190692},"status":{"t":1622187190692,"flag":1},"location":{"nation":"CN","province":"GUDO","city":"ZH","district":"明珠/上沖"},"feed":{"t":1622187190692},"secret":{"t":1622187190692},"extra":{},"type":2},"CN_GUDO_ZH8501":{"id":"CN_GUDO_ZH8501","code":"ZH8501","locator":"CN_GUDO_ZH","body":{"birth":2000},"service":{"form":12},"charge":{},"character":{},"rating":{"t":1622187190692},"status":{"t":1622187190692,"flag":1},"location":{"nation":"CN","province":"GUDO","city":"ZH","district":"金湾,斗门,不定区"},"feed":{"t":1622187190692},"secret":{"t":1622187190692},"extra":{},"type":48},"CN_GUDO_ZH0001":{"id":"CN_GUDO_ZH0001","code":"ZH0001","locator":"CN_GUDO_ZH","body":{"height":155,"birth":1990},"service":{},"charge":{},"character":{},"rating":{"t":1622187190692,"overall":70,"shape":70,"service":70},"status":{"t":1622187190692},"location":{"nation":"CN","province":"GUDO","city":"ZH","district":"拱北"},"feed":{"t":1622187190692},"secret":{"t":1622187190692},"extra":{},"type":1},"CN_GUDO_ZH0004":{"id":"CN_GUDO_ZH0004","code":"ZH0004","locator":"CN_GUDO_ZH","body":{"birth":1995},"service":{},"charge":{},"character":{},"rating":{"t":1622187190692,"overall":70,"character":70},"status":{"t":1622187190692},"location":{"nation":"CN","province":"GUDO","city":"ZH","district":"拱北,澳门"},"feed":{"t":1622187190692},"secret":{"t":1622187190692},"extra":{},"type":1},"CN_GUDO_ZH0005":{"id":"CN_GUDO_ZH0005","code":"ZH0005","locator":"CN_GUDO_ZH","body":{"birth":"1997","cosmetic":0,"height":"158","weight":"50","chest":"20"},"service":{"open":256,"hand":104,"mouth":176,"body":16,"pubis":0,"tool":0,"form":0},"charge":{"x1":"400"},"character":{"flag":0},"rating":{"t":1622187190692,"overall":"75","character":"85","face":"75","attitude":"80"},"status":{"t":1622187190692,"flag":1},"location":{"nation":"CN","province":"GUDO","city":"ZH","district":"拱北,澳门","street":"口岸"},"feed":{"t":1622187190692},"secret":{"t":1622187190692},"extra":{},"type":1,"name":"睡睡","t":1622359621827},"CN_GUDO_ZH0006":{"id":"CN_GUDO_ZH0006","code":"ZH0006","locator":"CN_GUDO_ZH","body":{"birth":2000},"service":{},"charge":{},"character":{"type":32},"rating":{"t":1622187190692,"overall":85,"slutty":70},"status":{"t":1622187190692},"location":{"nation":"CN","province":"GUDO","city":"ZH","district":"拱北"},"feed":{"t":1622187190692},"secret":{"t":1622187190692},"extra":{},"type":1},"CN_GUDO_ZH0007":{"id":"CN_GUDO_ZH0007","code":"ZH0007","locator":"CN_GUDO_ZH","body":{"height":155,"cosmetic":1,"birth":2000},"service":{"form":8},"charge":{},"character":{"type":32},"rating":{"t":1622187190692,"overall":70,"character":70,"slutty":70},"status":{"t":1622187190692},"location":{"nation":"CN","province":"GUDO","city":"ZH","district":"吉大"},"feed":{"t":1622187190692},"secret":{"t":1622187190692},"extra":{},"type":1},"CN_GUDO_ZH0008":{"id":"CN_GUDO_ZH0008","code":"ZH0008","locator":"CN_GUDO_ZH","body":{"birth":1990},"service":{"open":1,"hand":16},"charge":{},"character":{},"rating":{"t":1622187190692,"overall":70,"service":70},"status":{"t":1622187190692},"location":{"nation":"CN","province":"GUDO","city":"ZH","district":"拱北"},"feed":{"t":1622187190692},"secret":{"t":1622187190692},"extra":{},"type":1},"CN_GUDO_ZH0011":{"id":"CN_GUDO_ZH0011","code":"ZH0011","locator":"CN_GUDO_ZH","body":{"birth":1980},"service":{"pubis":65536},"charge":{},"character":{},"rating":{"t":1622187190692,"overall":70,"service":70,"character":70},"status":{"t":1622187190692},"location":{"nation":"CN","province":"GUDO","city":"ZH","district":"拱北"},"feed":{"t":1622187190692},"secret":{"t":1622187190692},"extra":{},"type":1},"CN_GUDO_ZH0025":{"id":"CN_GUDO_ZH0025","code":"ZH0025","locator":"CN_GUDO_ZH","body":{"height":165,"chest":20,"birth":1995},"service":{},"charge":{},"character":{},"rating":{"t":1622187190692,"overall":85,"face":70,"shape":70},"status":{"t":1622187190692},"location":{"nation":"CN","province":"GUDO","city":"ZH","district":"拱北"},"feed":{"t":1622187190692},"secret":{"t":1622187190692},"extra":{},"type":1},"CN_GUDO_ZH0031":{"id":"CN_GUDO_ZH0031","code":"ZH0031","locator":"CN_GUDO_ZH","body":{"birth":1980},"service":{},"charge":{},"character":{},"rating":{"t":1622187190692,"overall":70,"service":70,"character":70},"status":{"t":1622187190692},"location":{"nation":"CN","province":"GUDO","city":"ZH","district":"拱北"},"feed":{"t":1622187190692},"secret":{"t":1622187190692},"extra":{},"type":1},"CN_GUDO_ZH0043":{"id":"CN_GUDO_ZH0043","code":"ZH0043","locator":"CN_GUDO_ZH","body":{"cosmetic":1,"birth":1995},"service":{},"charge":{},"character":{},"rating":{"t":1622187190692,"overall":70},"status":{"t":1622187190692},"location":{"nation":"CN","province":"GUDO","city":"ZH","district":"拱北"},"feed":{"t":1622187190692},"secret":{"t":1622187190692},"extra":{},"type":1},"CN_GUDO_ZH0046":{"id":"CN_GUDO_ZH0046","code":"ZH0046","locator":"CN_GUDO_ZH","body":{"birth":1990},"service":{"open":1,"hand":17},"charge":{},"character":{},"rating":{"t":1622187190692,"overall":70,"shape":70,"service":70,"character":70,"massage":70},"status":{"t":1622187190692},"location":{"nation":"CN","province":"GUDO","city":"ZH","district":"拱北"},"feed":{"t":1622187190692},"secret":{"t":1622187190692},"extra":{},"type":1},"CN_GUDO_ZH0054":{"id":"CN_GUDO_ZH0054","code":"ZH0054","locator":"CN_GUDO_ZH","body":{"height":160,"chest":20,"birth":1995},"service":{"open":32,"mouth":257,"form":4},"charge":{},"character":{},"rating":{"t":1622187190692,"overall":85,"face":70,"shape":70,"character":70},"status":{"t":1622187190692},"location":{"nation":"CN","province":"GUDO","city":"ZH","district":"拱北,夏湾,前山"},"feed":{"t":1622187190692},"secret":{"t":1622187190692},"extra":{},"type":1},"CN_GUDO_ZH0062":{"id":"CN_GUDO_ZH0062","code":"ZH0062","locator":"CN_GUDO_ZH","body":{"birth":1990},"service":{},"charge":{},"character":{},"rating":{"t":1622187190692,"overall":70},"status":{"t":1622187190692},"location":{"nation":"CN","province":"GUDO","city":"ZH","district":"拱北"},"feed":{"t":1622187190692},"secret":{"t":1622187190692},"extra":{},"type":1},"CN_GUDO_ZH0066":{"id":"CN_GUDO_ZH0066","code":"ZH0066","locator":"CN_GUDO_ZH","body":{},"service":{"open":32,"mouth":256},"charge":{},"character":{},"rating":{"t":1622187190692,"overall":85,"service":70,"character":70},"status":{"t":1622187190692},"location":{"nation":"CN","province":"GUDO","city":"ZH","district":"拱北"},"feed":{"t":1622187190692},"secret":{"t":1622187190692},"extra":{},"type":1},"CN_GUDO_ZH0081":{"id":"CN_GUDO_ZH0081","code":"ZH0081","locator":"CN_GUDO_ZH","body":{"height":170,"chest":30,"birth":1995},"service":{"form":8},"charge":{},"character":{"type":32},"rating":{"t":1622187190692,"overall":70,"shape":70,"service":70,"character":70,"slutty":70},"status":{"t":1622187190692},"location":{"nation":"CN","province":"GUDO","city":"ZH","district":"拱北"},"feed":{"t":1622187190692},"secret":{"t":1622187190692},"extra":{},"type":1},"CN_GUDO_ZH0091":{"id":"CN_GUDO_ZH0091","code":"ZH0091","locator":"CN_GUDO_ZH","body":{},"service":{},"charge":{},"character":{},"rating":{"t":1622187190692,"overall":70},"status":{"t":1622187190692},"location":{"nation":"CN","province":"GUDO","city":"ZH","district":"拱北"},"feed":{"t":1622187190692},"secret":{"t":1622187190692},"extra":{},"type":1},"CN_GUDO_ZH0099":{"id":"CN_GUDO_ZH0099","code":"ZH0099","locator":"CN_GUDO_ZH","body":{"birth":1980},"service":{},"charge":{},"character":{},"rating":{"t":1622187190692,"overall":70,"service":70,"character":70},"status":{"t":1622187190692},"location":{"nation":"CN","province":"GUDO","city":"ZH","district":"拱北"},"feed":{"t":1622187190692},"secret":{"t":1622187190692},"extra":{},"type":1},"CN_GUDO_ZH0116":{"id":"CN_GUDO_ZH0116","code":"ZH0116","locator":"CN_GUDO_ZH","body":{"height":160,"chest":30,"birth":1995},"service":{"form":8},"charge":{},"character":{},"rating":{"t":1622187190692,"overall":85,"face":70,"shape":70,"service":70},"status":{"t":1622187190692},"location":{"nation":"CN","province":"GUDO","city":"ZH","district":"夏湾,前山,澳门"},"feed":{"t":1622187190692},"secret":{"t":1622187190692},"extra":{},"type":1},"CN_GUDO_ZH0122":{"id":"CN_GUDO_ZH0122","code":"ZH0122","locator":"CN_GUDO_ZH","body":{"birth":1995},"service":{},"charge":{},"character":{},"rating":{"t":1622187190692,"overall":70,"shape":70,"service":70,"character":70},"status":{"t":1622187190692},"location":{"nation":"CN","province":"GUDO","city":"ZH","district":"拱北"},"feed":{"t":1622187190692},"secret":{"t":1622187190692},"extra":{},"type":1},"CN_GUDO_ZH0129":{"id":"CN_GUDO_ZH0129","code":"ZH0129","locator":"CN_GUDO_ZH","body":{"birth":1995},"service":{"form":8},"charge":{},"character":{},"rating":{"t":1622187190692,"overall":70},"status":{"t":1622187190692},"location":{"nation":"CN","province":"GUDO","city":"ZH","district":"拱北"},"feed":{"t":1622187190692},"secret":{"t":1622187190692},"extra":{},"type":1},"CN_GUDO_ZH0130":{"id":"CN_GUDO_ZH0130","code":"ZH0130","locator":"CN_GUDO_ZH","body":{"birth":1995},"service":{"open":32,"mouth":256,"form":8},"charge":{},"character":{},"rating":{"t":1622187190692,"overall":85,"service":70,"character":70},"status":{"t":1622187190692},"location":{"nation":"CN","province":"GUDO","city":"ZH","district":"拱北"},"feed":{"t":1622187190692},"secret":{"t":1622187190692},"extra":{},"type":1},"CN_GUDO_ZH0132":{"id":"CN_GUDO_ZH0132","code":"ZH0132","locator":"CN_GUDO_ZH","body":{"birth":1995},"service":{"open":1,"hand":17},"charge":{},"character":{},"rating":{"t":1622187190692,"overall":70,"character":70,"massage":70},"status":{"t":1622187190692},"location":{"nation":"CN","province":"GUDO","city":"ZH","district":"拱北"},"feed":{"t":1622187190692},"secret":{"t":1622187190692},"extra":{},"type":1},"CN_GUDO_ZH0135":{"id":"CN_GUDO_ZH0135","code":"ZH0135","locator":"CN_GUDO_ZH","body":{"birth":1990},"service":{"open":32,"mouth":256},"charge":{},"character":{},"rating":{"t":1622187190692,"overall":70,"service":70,"character":70},"status":{"t":1622187190692},"location":{"nation":"CN","province":"GUDO","city":"ZH","district":"拱北"},"feed":{"t":1622187190692},"secret":{"t":1622187190692},"extra":{},"type":1},"CN_GUDO_ZH0136":{"id":"CN_GUDO_ZH0136","code":"ZH0136","locator":"CN_GUDO_ZH","body":{},"service":{"open":17,"hand":16,"mouth":16},"charge":{},"character":{},"rating":{"t":1622187190692,"overall":85,"shape":70,"service":70,"character":70},"status":{"t":1622187190692},"location":{"nation":"CN","province":"GUDO","city":"ZH","district":"拱北"},"feed":{"t":1622187190692},"secret":{"t":1622187190692},"extra":{},"type":1},"CN_GUDO_ZH0159":{"id":"CN_GUDO_ZH0159","code":"ZH0159","locator":"CN_GUDO_ZH","body":{"height":155},"service":{"open":1,"hand":16},"charge":{},"character":{},"rating":{"t":1622187190692,"overall":85,"face":70,"shape":70},"status":{"t":1622187190692},"location":{"nation":"CN","province":"GUDO","city":"ZH","district":"拱北"},"feed":{"t":1622187190692},"secret":{"t":1622187190692},"extra":{},"type":1},"CN_GUDO_ZH0161":{"id":"CN_GUDO_ZH0161","code":"ZH0161","locator":"CN_GUDO_ZH","body":{},"service":{},"charge":{},"character":{},"rating":{"t":1622187190692,"overall":70,"service":70,"character":70},"status":{"t":1622187190692},"location":{"nation":"CN","province":"GUDO","city":"ZH","district":"拱北"},"feed":{"t":1622187190692},"secret":{"t":1622187190692},"extra":{},"type":1},"CN_GUDO_ZH0164":{"id":"CN_GUDO_ZH0164","code":"ZH0164","locator":"CN_GUDO_ZH","body":{"birth":1990},"service":{},"charge":{},"character":{},"rating":{"t":1622187190692,"overall":70,"service":70,"character":70},"status":{"t":1622187190692},"location":{"nation":"CN","province":"GUDO","city":"ZH","district":"拱北"},"feed":{"t":1622187190692},"secret":{"t":1622187190692},"extra":{},"type":1},"CN_GUDO_ZH0166":{"id":"CN_GUDO_ZH0166","code":"ZH0166","locator":"CN_GUDO_ZH","body":{"birth":1990},"service":{"form":8},"charge":{},"character":{},"rating":{"t":1622187190692,"overall":70,"service":70,"character":70},"status":{"t":1622187190692},"location":{"nation":"CN","province":"GUDO","city":"ZH","district":"拱北"},"feed":{"t":1622187190692},"secret":{"t":1622187190692},"extra":{},"type":1},"CN_GUDO_ZH0169":{"id":"CN_GUDO_ZH0169","code":"ZH0169","locator":"CN_GUDO_ZH","body":{"birth":1995},"service":{},"charge":{},"character":{},"rating":{"t":1622187190692,"overall":70},"status":{"t":1622187190692},"location":{"nation":"CN","province":"GUDO","city":"ZH","district":"拱北"},"feed":{"t":1622187190692},"secret":{"t":1622187190692},"extra":{},"type":1},"CN_GUDO_ZH0172":{"id":"CN_GUDO_ZH0172","code":"ZH0172","locator":"CN_GUDO_ZH","body":{"birth":1995},"service":{},"charge":{},"character":{},"rating":{"t":1622187190692,"overall":70,"service":70},"status":{"t":1622187190692},"location":{"nation":"CN","province":"GUDO","city":"ZH","district":"拱北"},"feed":{"t":1622187190692},"secret":{"t":1622187190692},"extra":{},"type":1},"CN_GUDO_ZH0180":{"id":"CN_GUDO_ZH0180","code":"ZH0180","locator":"CN_GUDO_ZH","body":{},"service":{},"charge":{},"character":{},"rating":{"t":1622187190692,"overall":85,"face":70,"shape":70},"status":{"t":1622187190692},"location":{"nation":"CN","province":"GUDO","city":"ZH","district":"拱北"},"feed":{"t":1622187190692},"secret":{"t":1622187190692},"extra":{},"type":1},"CN_GUDO_ZH0194":{"id":"CN_GUDO_ZH0194","code":"ZH0194","locator":"CN_GUDO_ZH","body":{"birth":1995},"service":{},"charge":{},"character":{},"rating":{"t":1622187190692,"overall":70},"status":{"t":1622187190692},"location":{"nation":"CN","province":"GUDO","city":"ZH","district":"拱北"},"feed":{"t":1622187190692},"secret":{"t":1622187190692},"extra":{},"type":1},"CN_GUDO_ZH0198":{"id":"CN_GUDO_ZH0198","code":"ZH0198","locator":"CN_GUDO_ZH","body":{"birth":1985},"service":{"open":32,"mouth":256,"form":8},"charge":{},"character":{"type":32},"rating":{"t":1622187190692,"overall":70,"service":70,"character":70,"slutty":70},"status":{"t":1622187190692},"location":{"nation":"CN","province":"GUDO","city":"ZH","district":"拱北,兰埔"},"feed":{"t":1622187190692},"secret":{"t":1622187190692},"extra":{},"type":1},"CN_GUDO_ZH0199":{"id":"CN_GUDO_ZH0199","code":"ZH0199","locator":"CN_GUDO_ZH","body":{"height":155,"chest":20,"birth":1995},"service":{"open":1,"hand":17},"charge":{},"character":{},"rating":{"t":1622187190692,"overall":70,"shape":70,"service":70,"character":70,"massage":70},"status":{"t":1622187190692},"location":{"nation":"CN","province":"GUDO","city":"ZH","district":"拱北"},"feed":{"t":1622187190692},"secret":{"t":1622187190692},"extra":{},"type":1},"CN_GUDO_ZH0200":{"id":"CN_GUDO_ZH0200","code":"ZH0200","locator":"CN_GUDO_ZH","body":{"birth":1990},"service":{},"charge":{},"character":{},"rating":{"t":1622187190692,"overall":70,"shape":70,"character":70},"status":{"t":1622187190692},"location":{"nation":"CN","province":"GUDO","city":"ZH","district":"拱北"},"feed":{"t":1622187190692},"secret":{"t":1622187190692},"extra":{},"type":1},"CN_GUDO_ZH0204":{"id":"CN_GUDO_ZH0204","code":"ZH0204","locator":"CN_GUDO_ZH","body":{"height":165,"chest":20,"birth":1995,"cosmetic":0,"weight":"49"},"service":{"open":1,"hand":115,"mouth":4096,"body":0,"pubis":0,"tool":0,"form":0},"charge":{"h1":"250"},"character":{"flag":0},"rating":{"t":1622187190692,"overall":"75","shape":"85","character":"80","massage":"80","attitude":"80"},"status":{"t":1622187190692,"flag":1},"location":{"nation":"CN","province":"GUDO","city":"ZH","district":"拱北","street":"口岸"},"feed":{"t":1622187190692},"secret":{"t":1622187190692},"extra":{},"type":1,"desc":"","name":"利利","t":"1622300000000"},"CN_GUDO_ZH0209":{"id":"CN_GUDO_ZH0209","code":"ZH0209","locator":"CN_GUDO_ZH","body":{"birth":2000},"service":{"open":1,"hand":16},"charge":{},"character":{},"rating":{"t":1622187190692,"overall":70,"face":70,"character":70},"status":{"t":1622187190692},"location":{"nation":"CN","province":"GUDO","city":"ZH","district":"拱北"},"feed":{"t":1622187190692},"secret":{"t":1622187190692},"extra":{},"type":1},"CN_GUDO_ZH0210":{"id":"CN_GUDO_ZH0210","code":"ZH0210","locator":"CN_GUDO_ZH","body":{"height":160,"chest":30,"birth":1990},"service":{},"charge":{},"character":{},"rating":{"t":1622187190692,"overall":70,"service":70,"character":70},"status":{"t":1622187190692},"location":{"nation":"CN","province":"GUDO","city":"ZH","district":"拱北"},"feed":{"t":1622187190692},"secret":{"t":1622187190692},"extra":{},"type":1},"CN_GUDO_ZH0212":{"id":"CN_GUDO_ZH0212","code":"ZH0212","locator":"CN_GUDO_ZH","body":{},"service":{},"charge":{},"character":{},"rating":{"t":1622187190692,"overall":70,"service":70,"character":70},"status":{"t":1622187190692},"location":{"nation":"CN","province":"GUDO","city":"ZH","district":"拱北"},"feed":{"t":1622187190692},"secret":{"t":1622187190692},"extra":{},"type":1},"CN_GUDO_ZH0213":{"id":"CN_GUDO_ZH0213","code":"ZH0213","locator":"CN_GUDO_ZH","body":{"birth":1990},"service":{"open":33,"hand":16,"mouth":256},"charge":{},"character":{},"rating":{"t":1622187190692,"overall":70,"service":70,"character":70},"status":{"t":1622187190692},"location":{"nation":"CN","province":"GUDO","city":"ZH","district":"拱北"},"feed":{"t":1622187190692},"secret":{"t":1622187190692},"extra":{},"type":1},"CN_GUDO_ZH0222":{"id":"CN_GUDO_ZH0222","code":"ZH0222","locator":"CN_GUDO_ZH","body":{"birth":1990},"service":{"open":1,"hand":17},"charge":{},"character":{},"rating":{"t":1622187190692,"overall":70,"shape":70,"character":70,"massage":70},"status":{"t":1622187190692},"location":{"nation":"CN","province":"GUDO","city":"ZH","district":"拱北"},"feed":{"t":1622187190692},"secret":{"t":1622187190692},"extra":{},"type":1},"CN_GUDO_ZH0223":{"id":"CN_GUDO_ZH0223","code":"ZH0223","locator":"CN_GUDO_ZH","body":{"chest":40,"birth":1985},"service":{"open":33,"hand":16,"mouth":256},"charge":{},"character":{},"rating":{"t":1622187190692,"overall":70,"shape":70,"service":70,"character":70},"status":{"t":1622187190692},"location":{"nation":"CN","province":"GUDO","city":"ZH","district":"拱北"},"feed":{"t":1622187190692},"secret":{"t":1622187190692},"extra":{},"type":1},"CN_GUDO_ZH0224":{"id":"CN_GUDO_ZH0224","code":"ZH0224","locator":"CN_GUDO_ZH","body":{"birth":1990},"service":{"hand":1},"charge":{},"character":{},"rating":{"t":1622187190692,"overall":70,"shape":70,"character":70,"massage":70},"status":{"t":1622187190692},"location":{"nation":"CN","province":"GUDO","city":"ZH","district":"拱北"},"feed":{"t":1622187190692},"secret":{"t":1622187190692},"extra":{},"type":1},"CN_GUDO_ZH0226":{"id":"CN_GUDO_ZH0226","code":"ZH0226","locator":"CN_GUDO_ZH","body":{},"service":{"open":32,"mouth":256},"charge":{},"character":{},"rating":{"t":1622187190692,"overall":70,"shape":70,"service":70,"character":70},"status":{"t":1622187190692},"location":{"nation":"CN","province":"GUDO","city":"ZH","district":"拱北"},"feed":{"t":1622187190692},"secret":{"t":1622187190692},"extra":{},"type":1},"CN_GUDO_ZH0241":{"id":"CN_GUDO_ZH0241","code":"ZH0241","locator":"CN_GUDO_ZH","body":{"birth":1990},"service":{"open":1,"hand":17,"form":8},"charge":{},"character":{},"rating":{"t":1622187190692,"overall":70,"massage":70},"status":{"t":1622187190692},"location":{"nation":"CN","province":"GUDO","city":"ZH","district":"拱北"},"feed":{"t":1622187190692},"secret":{"t":1622187190692},"extra":{},"type":1},"CN_GUDO_ZH0246":{"id":"CN_GUDO_ZH0246","code":"ZH0246","locator":"CN_GUDO_ZH","body":{"birth":1995},"service":{},"charge":{},"character":{},"rating":{"t":1622187190692,"overall":70,"shape":70},"status":{"t":1622187190692},"location":{"nation":"CN","province":"GUDO","city":"ZH","district":"拱北,澳门"},"feed":{"t":1622187190692},"secret":{"t":1622187190692},"extra":{},"type":1},"CN_GUDO_ZH0247":{"id":"CN_GUDO_ZH0247","code":"ZH0247","locator":"CN_GUDO_ZH","body":{"birth":1995},"service":{"open":1,"hand":17},"charge":{},"character":{},"rating":{"t":1622187190692,"overall":85,"shape":70,"service":70,"massage":70},"status":{"t":1622187190692},"location":{"nation":"CN","province":"GUDO","city":"ZH","district":"拱北,澳门"},"feed":{"t":1622187190692},"secret":{"t":1622187190692},"extra":{},"type":1},"CN_GUDO_ZH0248":{"id":"CN_GUDO_ZH0248","code":"ZH0248","locator":"CN_GUDO_ZH","body":{"birth":2000},"service":{"form":8},"charge":{},"character":{"type":32},"rating":{"t":1622187190692,"overall":70,"face":70,"shape":70,"slutty":70},"status":{"t":1622187190692,"flag":8},"location":{"nation":"CN","province":"GUDO","city":"ZH","district":"拱北"},"feed":{"t":1622187190692},"secret":{"t":1622187190692},"extra":{},"type":5},"CN_GUDO_ZH0254":{"id":"CN_GUDO_ZH0254","code":"ZH0254","locator":"CN_GUDO_ZH","body":{"height":160,"chest":30,"cosmetic":1,"birth":1995},"service":{},"charge":{},"character":{"type":32},"rating":{"t":1622187190692,"overall":85,"face":70,"shape":70,"service":70,"character":70,"slutty":70},"status":{"t":1622187190692},"location":{"nation":"CN","province":"GUDO","city":"ZH","district":"拱北,兰埔"},"feed":{"t":1622187190692},"secret":{"t":1622187190692},"extra":{},"type":1},"CN_GUDO_ZH0255":{"id":"CN_GUDO_ZH0255","code":"ZH0255","locator":"CN_GUDO_ZH","body":{"height":"162","chest":"35","birth":"1991","weight":"50","cosmetic":0},"service":{"open":768,"mouth":37361,"pubis":65536,"hand":0,"body":0,"tool":23,"form":0},"charge":{"x1":"600","x2":"","g1":"888","n1":"500"},"character":{"type":32,"flag":0},"rating":{"t":1622187190692,"overall":"90","face":70,"service":"80","character":"90","slutty":"90","cooperative":"90"},"status":{"t":1622187190692,"flag":1},"location":{"nation":"CN","province":"GUDO","city":"ZH","district":"拱北,兰埔","street":"摩尔广场"},"feed":{"t":1622187190692},"secret":{"t":1622187190692},"extra":{},"type":8193,"name":"石石","desc":"可三通的妹妹\n气质美少妇, 以前是 OL","t":1622311596122},"CN_GUDO_ZH0258":{"id":"CN_GUDO_ZH0258","code":"ZH0258","locator":"CN_GUDO_ZH","body":{"height":160,"chest":30,"birth":2000},"service":{"open":32,"mouth":256},"charge":{},"character":{"type":32},"rating":{"t":1622187190692,"overall":70,"face":70,"shape":70,"character":70,"slutty":70},"status":{"t":1622187190692,"flag":8},"location":{"nation":"CN","province":"GUDO","city":"ZH","district":"夏湾"},"feed":{"t":1622187190692},"secret":{"t":1622187190692},"extra":{},"type":21},"CN_GUDO_ZH0262":{"id":"CN_GUDO_ZH0262","code":"ZH0262","locator":"CN_GUDO_ZH","body":{"height":160,"birth":2000},"service":{"open":32,"mouth":256,"form":8},"charge":{},"character":{},"rating":{"t":1622187190692,"overall":70,"shape":70,"service":70,"character":70},"status":{"t":1622187190692,"flag":8},"location":{"nation":"CN","province":"GUDO","city":"ZH","district":"夏湾"},"feed":{"t":1622187190692},"secret":{"t":1622187190692},"extra":{},"type":5},"CN_GUDO_ZH0272":{"id":"CN_GUDO_ZH0272","code":"ZH0272","locator":"CN_GUDO_ZH","body":{"height":160,"chest":40,"birth":1990},"service":{"open":49,"hand":16,"mouth":272},"charge":{},"character":{},"rating":{"t":1622187190692,"overall":70,"shape":70,"service":70,"character":70},"status":{"t":1622187190692},"location":{"nation":"CN","province":"GUDO","city":"ZH","district":"拱北"},"feed":{"t":1622187190692},"secret":{"t":1622187190692},"extra":{},"type":1},"CN_GUDO_ZH0273":{"id":"CN_GUDO_ZH0273","code":"ZH0273","locator":"CN_GUDO_ZH","body":{"height":160,"birth":1995},"service":{"open":32,"mouth":256,"flag":131072},"charge":{},"character":{"type":32},"rating":{"t":1622187190692,"overall":85,"face":70,"service":70,"character":70,"slutty":70},"status":{"t":1622187190692},"location":{"nation":"CN","province":"GUDO","city":"ZH","district":"吉大"},"feed":{"t":1622187190692},"secret":{"t":1622187190692},"extra":{},"type":1},"CN_GUDO_ZH0276":{"id":"CN_GUDO_ZH0276","code":"ZH0276","locator":"CN_GUDO_ZH","body":{"height":160,"chest":30,"birth":1995},"service":{},"charge":{},"character":{},"rating":{"t":1622187190692,"overall":85,"shape":70,"service":70,"character":70},"status":{"t":1622187190692},"location":{"nation":"CN","province":"GUDO","city":"ZH","district":"拱北,兰埔"},"feed":{"t":1622187190692},"secret":{"t":1622187190692},"extra":{},"type":1},"CN_GUDO_ZH0277":{"id":"CN_GUDO_ZH0277","code":"ZH0277","locator":"CN_GUDO_ZH","body":{"height":160,"chest":30,"cosmetic":1,"birth":2000},"service":{"open":32,"mouth":256,"flag":131072,"hand":1,"form":8},"charge":{},"character":{"type":32},"rating":{"t":1622187190692,"overall":85,"face":70,"shape":70,"service":70,"character":70,"slutty":70,"massage":70},"status":{"t":1622187190692},"location":{"nation":"CN","province":"GUDO","city":"ZH","district":"吉大"},"feed":{"t":1622187190692},"secret":{"t":1622187190692},"extra":{},"type":1},"CN_GUDO_ZH0293":{"id":"CN_GUDO_ZH0293","code":"ZH0293","locator":"CN_GUDO_ZH","body":{"height":160,"chest":40,"birth":1990},"service":{"open":32,"mouth":256,"form":8},"charge":{},"character":{"type":32},"rating":{"t":1622187190692,"overall":70,"shape":70,"service":70,"character":70,"slutty":70},"status":{"t":1622187190692},"location":{"nation":"CN","province":"GUDO","city":"ZH","district":"拱北"},"feed":{"t":1622187190692},"secret":{"t":1622187190692},"extra":{},"type":1},"CN_GUDO_ZH0300":{"id":"CN_GUDO_ZH0300","code":"ZH0300","locator":"CN_GUDO_ZH","body":{"height":160,"chest":40,"birth":1995},"service":{},"charge":{},"character":{},"rating":{"t":1622187190692,"overall":70,"face":70,"shape":70,"character":70},"status":{"t":1622187190692},"location":{"nation":"CN","province":"GUDO","city":"ZH","district":"拱北"},"feed":{"t":1622187190692},"secret":{"t":1622187190692},"extra":{},"type":1},"CN_GUDO_ZH0318":{"id":"CN_GUDO_ZH0318","code":"ZH0318","locator":"CN_GUDO_ZH","body":{"height":160,"chest":20,"birth":1995},"service":{},"charge":{},"character":{"type":32},"rating":{"t":1622187190692,"overall":70,"slutty":70},"status":{"t":1622187190692,"flag":8},"location":{"nation":"CN","province":"GUDO","city":"ZH","district":"拱北,夏湾,前山,兰埔,上门"},"feed":{"t":1622187190692},"secret":{"t":1622187190692},"extra":{},"type":5},"CN_GUDO_ZH0319":{"id":"CN_GUDO_ZH0319","code":"ZH0319","locator":"CN_GUDO_ZH","body":{"height":160,"chest":40,"birth":1995,"cosmetic":0},"service":{"open":1,"hand":83,"mouth":4096,"body":0,"pubis":0,"tool":0,"form":0},"charge":{"h1":"250"},"character":{"flag":0},"rating":{"t":1622187190692,"overall":70,"face":70},"status":{"t":1622187190692,"flag":1},"location":{"nation":"CN","province":"GUDO","city":"ZH","district":"拱北"},"feed":{"t":1622187190692},"secret":{"t":1622187190692},"extra":{},"type":1},"CN_GUDO_ZH0325":{"id":"CN_GUDO_ZH0325","code":"ZH0325","locator":"CN_GUDO_ZH","body":{"height":160,"chest":30,"birth":1995},"service":{},"charge":{},"character":{},"rating":{"t":1622187190692,"overall":70,"service":70},"status":{"t":1622187190692},"location":{"nation":"CN","province":"GUDO","city":"ZH","district":"拱北,兰埔"},"feed":{"t":1622187190692},"secret":{"t":1622187190692},"extra":{},"type":1},"CN_GUDO_ZH0345":{"id":"CN_GUDO_ZH0345","code":"ZH0345","locator":"CN_GUDO_ZH","body":{"height":160,"chest":30,"birth":"2002","weight":"46"},"service":{"mouth":16},"charge":{"n1":"400"},"character":{},"rating":{"t":1622187190692,"overall":"70","face":70,"shape":70,"character":70},"status":{"t":1622187190692,"flag":3},"location":{"nation":"CN","province":"GUDO","city":"ZH","district":"吉大","street":"石花西路 66 号公寓"},"feed":{"t":1622187190692},"secret":{"t":1622187190692},"extra":{},"type":1},"CN_GUDO_ZH0348":{"id":"CN_GUDO_ZH0348","code":"ZH0348","locator":"CN_GUDO_ZH","body":{"height":160,"chest":20,"birth":1995,"cosmetic":0},"service":{"open":256,"mouth":4112,"hand":0,"body":0,"pubis":0,"tool":0,"form":0},"charge":{"x1":"600"},"character":{"flag":0},"rating":{"t":1622187190692,"overall":70,"character":70,"face":"85","attitude":"70"},"status":{"t":1622187190692,"flag":64},"location":{"nation":"CN","province":"GUDO","city":"ZH","district":"拱北,夏湾"},"feed":{"t":1622187190692},"secret":{"t":1622187190692},"extra":{},"type":1},"CN_GUDO_ZH00317":{"id":"CN_GUDO_ZH00317","code":"ZH00317","locator":"CN_GUDO_ZH","body":{},"service":{},"charge":{},"character":{},"rating":{"t":1622187190692,"overall":85},"status":{"t":1622187190692},"location":{"nation":"CN","province":"GUDO","city":"ZH","district":"拱北"},"feed":{"t":1622187190692},"secret":{"t":1622187190692},"extra":{},"type":1},"CN_GUDO_ZH0044":{"id":"CN_GUDO_ZH0044","code":"ZH0044","locator":"CN_GUDO_ZH","body":{},"service":{"open":1,"hand":16},"charge":{},"character":{},"rating":{"t":1622187190692},"status":{"t":1622187190692},"location":{"nation":"CN","province":"GUDO","city":"ZH","district":"拱北"},"feed":{"t":1622187190692},"secret":{"t":1622187190692},"extra":{},"type":1},"CN_GUDO_ZH0051":{"id":"CN_GUDO_ZH0051","code":"ZH0051","locator":"CN_GUDO_ZH","body":{"birth":1990},"service":{"open":1,"hand":16},"charge":{},"character":{},"rating":{"t":1622187190692},"status":{"t":1622187190692},"location":{"nation":"CN","province":"GUDO","city":"ZH","district":"拱北"},"feed":{"t":1622187190692},"secret":{"t":1622187190692},"extra":{},"type":1},"CN_GUDO_ZH0083":{"id":"CN_GUDO_ZH0083","code":"ZH0083","locator":"CN_GUDO_ZH","body":{"birth":1995},"service":{"open":1,"hand":16},"charge":{},"character":{},"rating":{"t":1622187190692},"status":{"t":1622187190692},"location":{"nation":"CN","province":"GUDO","city":"ZH","district":"拱北"},"feed":{"t":1622187190692},"secret":{"t":1622187190692},"extra":{},"type":1},"CN_GUDO_ZH0085":{"id":"CN_GUDO_ZH0085","code":"ZH0085","locator":"CN_GUDO_ZH","body":{},"service":{"open":1,"hand":16},"charge":{},"character":{},"rating":{"t":1622187190692},"status":{"t":1622187190692},"location":{"nation":"CN","province":"GUDO","city":"ZH","district":"拱北"},"feed":{"t":1622187190692},"secret":{"t":1622187190692},"extra":{},"type":1},"CN_GUDO_ZH0086":{"id":"CN_GUDO_ZH0086","code":"ZH0086","locator":"CN_GUDO_ZH","body":{},"service":{"open":1,"hand":16},"charge":{},"character":{},"rating":{"t":1622187190692},"status":{"t":1622187190692},"location":{"nation":"CN","province":"GUDO","city":"ZH","district":"拱北"},"feed":{"t":1622187190692},"secret":{"t":1622187190692},"extra":{},"type":1},"CN_GUDO_ZH0114":{"id":"CN_GUDO_ZH0114","code":"ZH0114","locator":"CN_GUDO_ZH","body":{"birth":1990},"service":{"open":17,"hand":17,"mouth":16},"charge":{},"character":{},"rating":{"t":1622187190692,"massage":70},"status":{"t":1622187190692},"location":{"nation":"CN","province":"GUDO","city":"ZH","district":"拱北"},"feed":{"t":1622187190692},"secret":{"t":1622187190692},"extra":{},"type":1},"CN_GUDO_ZH0118":{"id":"CN_GUDO_ZH0118","code":"ZH0118","locator":"CN_GUDO_ZH","body":{},"service":{"open":17,"hand":16,"mouth":16},"charge":{},"character":{},"rating":{"t":1622187190692},"status":{"t":1622187190692},"location":{"nation":"CN","province":"GUDO","city":"ZH","district":"拱北"},"feed":{"t":1622187190692},"secret":{"t":1622187190692},"extra":{},"type":1},"CN_GUDO_ZH0119":{"id":"CN_GUDO_ZH0119","code":"ZH0119","locator":"CN_GUDO_ZH","body":{"height":160,"chest":20,"birth":1995},"service":{"open":3,"hand":17,"body":256,"form":553648144},"charge":{},"character":{},"rating":{"t":1622187190692,"face":70,"shape":70,"massage":70},"status":{"t":1622187190692},"location":{"nation":"CN","province":"GUDO","city":"ZH","district":"前山,南屏,坦洲,不定区"},"feed":{"t":1622187190692},"secret":{"t":1622187190692},"extra":{},"type":1},"CN_GUDO_ZH0124":{"id":"CN_GUDO_ZH0124","code":"ZH0124","locator":"CN_GUDO_ZH","body":{},"service":{"open":1,"hand":16},"charge":{},"character":{},"rating":{"t":1622187190692},"status":{"t":1622187190692},"location":{"nation":"CN","province":"GUDO","city":"ZH","district":"拱北"},"feed":{"t":1622187190692},"secret":{"t":1622187190692},"extra":{},"type":1},"CN_GUDO_ZH0148":{"id":"CN_GUDO_ZH0148","code":"ZH0148","locator":"CN_GUDO_ZH","body":{"birth":1990},"service":{"open":17,"hand":16,"mouth":16},"charge":{},"character":{},"rating":{"t":1622187190692},"status":{"t":1622187190692},"location":{"nation":"CN","province":"GUDO","city":"ZH","district":"拱北"},"feed":{"t":1622187190692},"secret":{"t":1622187190692},"extra":{},"type":1},"CN_GUDO_ZH0150":{"id":"CN_GUDO_ZH0150","code":"ZH0150","locator":"CN_GUDO_ZH","body":{},"service":{"open":17,"hand":16,"mouth":16},"charge":{},"character":{},"rating":{"t":1622187190692},"status":{"t":1622187190692},"location":{"nation":"CN","province":"GUDO","city":"ZH","district":"拱北"},"feed":{"t":1622187190692},"secret":{"t":1622187190692},"extra":{},"type":1},"CN_GUDO_ZH0152":{"id":"CN_GUDO_ZH0152","code":"ZH0152","locator":"CN_GUDO_ZH","body":{},"service":{"open":1,"hand":16},"charge":{},"character":{},"rating":{"t":1622187190692},"status":{"t":1622187190692},"location":{"nation":"CN","province":"GUDO","city":"ZH","district":"拱北"},"feed":{"t":1622187190692},"secret":{"t":1622187190692},"extra":{},"type":1},"CN_GUDO_ZH0158":{"id":"CN_GUDO_ZH0158","code":"ZH0158","locator":"CN_GUDO_ZH","body":{},"service":{"open":1,"hand":16},"charge":{},"character":{},"rating":{"t":1622187190692},"status":{"t":1622187190692},"location":{"nation":"CN","province":"GUDO","city":"ZH","district":"拱北"},"feed":{"t":1622187190692},"secret":{"t":1622187190692},"extra":{},"type":1},"CN_GUDO_ZH0181":{"id":"CN_GUDO_ZH0181","code":"ZH0181","locator":"CN_GUDO_ZH","body":{"birth":1995},"service":{"open":1,"hand":16},"charge":{},"character":{},"rating":{"t":1622187190692},"status":{"t":1622187190692},"location":{"nation":"CN","province":"GUDO","city":"ZH","district":"拱北"},"feed":{"t":1622187190692},"secret":{"t":1622187190692},"extra":{},"type":1},"CN_GUDO_ZH0189":{"id":"CN_GUDO_ZH0189","code":"ZH0189","locator":"CN_GUDO_ZH","body":{},"service":{"open":1,"hand":16},"charge":{},"character":{},"rating":{"t":1622187190692},"status":{"t":1622187190692},"location":{"nation":"CN","province":"GUDO","city":"ZH","district":"拱北"},"feed":{"t":1622187190692},"secret":{"t":1622187190692},"extra":{},"type":1},"CN_GUDO_ZH0242":{"id":"CN_GUDO_ZH0242","code":"ZH0242","locator":"CN_GUDO_ZH","body":{"birth":1995},"service":{"open":1,"hand":17},"charge":{},"character":{},"rating":{"t":1622187190692,"character":70,"massage":70},"status":{"t":1622187190692},"location":{"nation":"CN","province":"GUDO","city":"ZH","district":"拱北,澳门"},"feed":{"t":1622187190692},"secret":{"t":1622187190692},"extra":{},"type":1},"CN_GUDO_ZH0303":{"id":"CN_GUDO_ZH0303","code":"ZH0303","locator":"CN_GUDO_ZH","body":{"height":160,"chest":20,"birth":1995},"service":{"open":17,"hand":16,"mouth":16},"charge":{},"character":{},"rating":{"t":1622187190692,"shape":70},"status":{"t":1622187190692},"location":{"nation":"CN","province":"GUDO","city":"ZH","district":"夏湾,前山"},"feed":{"t":1622187190692},"secret":{"t":1622187190692},"extra":{},"type":1},"CN_GUDO_ZH0322":{"id":"CN_GUDO_ZH0322","code":"ZH0322","locator":"CN_GUDO_ZH","body":{"height":160,"chest":30,"birth":1995},"service":{"open":49,"hand":16,"mouth":272},"charge":{},"character":{},"rating":{"t":1622187190692},"status":{"t":1622187190692},"location":{"nation":"CN","province":"GUDO","city":"ZH","district":"拱北"},"feed":{"t":1622187190692},"secret":{"t":1622187190692},"extra":{},"type":1},"CN_GUDO_ZH0104":{"id":"CN_GUDO_ZH0104","code":"ZH0104","locator":"CN_GUDO_ZH","body":{},"service":{"open":32,"mouth":256},"charge":{},"character":{},"rating":{"t":1622187190692,"service":70},"status":{"t":1622187190692},"location":{"nation":"CN","province":"GUDO","city":"ZH","district":"拱北"},"feed":{"t":1622187190692},"secret":{"t":1622187190692},"extra":{},"type":1},"CN_GUDO_ZH0326":{"id":"CN_GUDO_ZH0326","code":"ZH0326","locator":"CN_GUDO_ZH","body":{"height":160,"chest":20,"birth":2000},"service":{"open":32,"mouth":256},"charge":{},"character":{},"rating":{"t":1622187190692},"status":{"t":1622187190692,"flag":8},"location":{"nation":"CN","province":"GUDO","city":"ZH","district":"夏湾"},"feed":{"t":1622187190692},"secret":{"t":1622187190692},"extra":{},"type":21},"CN_GUDO_ZH0038":{"id":"CN_GUDO_ZH0038","code":"ZH0038","locator":"CN_GUDO_ZH","body":{},"service":{},"charge":{},"character":{},"rating":{"t":1622187190692},"status":{"t":1622187190692},"location":{"nation":"CN","province":"GUDO","city":"ZH","district":"拱北"},"feed":{"t":1622187190692},"secret":{"t":1622187190692},"extra":{},"type":17},"CN_GUDO_ZH0057":{"id":"CN_GUDO_ZH0057","code":"ZH0057","locator":"CN_GUDO_ZH","body":{"birth":1995},"service":{},"charge":{},"character":{},"rating":{"t":1622187190692},"status":{"t":1622187190692},"location":{"nation":"CN","province":"GUDO","city":"ZH","district":"拱北"},"feed":{"t":1622187190692},"secret":{"t":1622187190692},"extra":{},"type":17},"CN_GUDO_ZH0073":{"id":"CN_GUDO_ZH0073","code":"ZH0073","locator":"CN_GUDO_ZH","body":{},"service":{},"charge":{},"character":{},"rating":{"t":1622187190692},"status":{"t":1622187190692},"location":{"nation":"CN","province":"GUDO","city":"ZH","district":"拱北"},"feed":{"t":1622187190692},"secret":{"t":1622187190692},"extra":{},"type":17},"CN_GUDO_ZH0156":{"id":"CN_GUDO_ZH0156","code":"ZH0156","locator":"CN_GUDO_ZH","body":{"birth":1985},"service":{"flag":131072},"charge":{},"character":{},"rating":{"t":1622187190692,"service":70},"status":{"t":1622187190692},"location":{"nation":"CN","province":"GUDO","city":"ZH","district":"拱北"},"feed":{"t":1622187190692},"secret":{"t":1622187190692},"extra":{},"type":17},"CN_GUDO_ZH0174":{"id":"CN_GUDO_ZH0174","code":"ZH0174","locator":"CN_GUDO_ZH","body":{"birth":1990},"service":{"flag":131072},"charge":{},"character":{},"rating":{"t":1622187190692},"status":{"t":1622187190692},"location":{"nation":"CN","province":"GUDO","city":"ZH","district":"拱北"},"feed":{"t":1622187190692},"secret":{"t":1622187190692},"extra":{},"type":17},"CN_GUDO_ZH0179":{"id":"CN_GUDO_ZH0179","code":"ZH0179","locator":"CN_GUDO_ZH","body":{"birth":1985},"service":{},"charge":{},"character":{},"rating":{"t":1622187190692,"service":70},"status":{"t":1622187190692},"location":{"nation":"CN","province":"GUDO","city":"ZH","district":"拱北"},"feed":{"t":1622187190692},"secret":{"t":1622187190692},"extra":{},"type":17},"CN_GUDO_ZH0230":{"id":"CN_GUDO_ZH0230","code":"ZH0230","locator":"CN_GUDO_ZH","body":{"birth":1995},"service":{},"charge":{},"character":{},"rating":{"t":1622187190692,"face":70,"character":70},"status":{"t":1622187190692},"location":{"nation":"CN","province":"GUDO","city":"ZH","district":"明珠/上沖"},"feed":{"t":1622187190692},"secret":{"t":1622187190692},"extra":{},"type":17},"CN_GUDO_ZH0232":{"id":"CN_GUDO_ZH0232","code":"ZH0232","locator":"CN_GUDO_ZH","body":{"birth":1995},"service":{},"charge":{},"character":{},"rating":{"t":1622187190692},"status":{"t":1622187190692},"location":{"nation":"CN","province":"GUDO","city":"ZH","district":"明珠/上沖"},"feed":{"t":1622187190692},"secret":{"t":1622187190692},"extra":{},"type":17},"CN_GUDO_ZH0264":{"id":"CN_GUDO_ZH0264","code":"ZH0264","locator":"CN_GUDO_ZH","body":{"height":160,"birth":1995},"service":{"form":8},"charge":{},"character":{},"rating":{"t":1622187190692},"status":{"t":1622187190692},"location":{"nation":"CN","province":"GUDO","city":"ZH","district":"拱北"},"feed":{"t":1622187190692},"secret":{"t":1622187190692},"extra":{},"type":17},"CN_GUDO_ZH0297":{"id":"CN_GUDO_ZH0297","code":"ZH0297","locator":"CN_GUDO_ZH","body":{"height":160,"chest":30,"birth":1995},"service":{"form":8},"charge":{},"character":{"type":32},"rating":{"t":1622187190692,"face":70,"shape":70,"character":70,"slutty":70},"status":{"t":1622187190692},"location":{"nation":"CN","province":"GUDO","city":"ZH","district":"明珠/上沖"},"feed":{"t":1622187190692},"secret":{"t":1622187190692},"extra":{},"type":17},"CN_GUDO_ZH0256":{"id":"CN_GUDO_ZH0256","code":"ZH0256","locator":"CN_GUDO_ZH","body":{"birth":2000},"service":{},"charge":{},"character":{"type":32},"rating":{"t":1622187190692,"character":70,"slutty":70},"status":{"t":1622187190692,"flag":8},"location":{"nation":"CN","province":"GUDO","city":"ZH","district":"明珠/上沖"},"feed":{"t":1622187190692},"secret":{"t":1622187190692},"extra":{},"type":5},"CN_GUDO_ZH0257":{"id":"CN_GUDO_ZH0257","code":"ZH0257","locator":"CN_GUDO_ZH","body":{"birth":2000},"service":{},"charge":{},"character":{},"rating":{"t":1622187190692,"face":70},"status":{"t":1622187190692,"flag":8},"location":{"nation":"CN","province":"GUDO","city":"ZH","district":"夏湾"},"feed":{"t":1622187190692},"secret":{"t":1622187190692},"extra":{},"type":5},"CN_GUDO_ZH0071":{"id":"CN_GUDO_ZH0071","code":"ZH0071","locator":"CN_GUDO_ZH","body":{"birth":1995},"service":{},"charge":{},"character":{},"rating":{"t":1622187190692,"face":70},"status":{"t":1622187190692},"location":{"nation":"CN","province":"GUDO","city":"ZH","district":"吉大"},"feed":{"t":1622187190692},"secret":{"t":1622187190692},"extra":{},"type":1},"CN_GUDO_ZH0207":{"id":"CN_GUDO_ZH0207","code":"ZH0207","locator":"CN_GUDO_ZH","body":{"cosmetic":1,"birth":2000},"service":{},"charge":{},"character":{},"rating":{"t":1622187190693,"face":70},"status":{"t":1622187190693},"location":{"nation":"CN","province":"GUDO","city":"ZH","district":"拱北"},"feed":{"t":1622187190693},"secret":{"t":1622187190693},"extra":{},"type":1},"CN_GUDO_ZH0291":{"id":"CN_GUDO_ZH0291","code":"ZH0291","locator":"CN_GUDO_ZH","body":{"height":165,"chest":"30","birth":1995,"cosmetic":0,"weight":"50"},"service":{"open":0,"mouth":16,"hand":64,"body":0,"pubis":0,"tool":0,"form":0},"charge":{"x1":"500"},"character":{"flag":0},"rating":{"t":1622187190693,"face":"","shape":"","character":""},"status":{"t":1622187190693,"flag":72},"location":{"nation":"CN","province":"GUDO","city":"ZH","district":"夏湾,前山"},"feed":{"t":1622187190693},"secret":{"t":1622187190693},"extra":{},"type":1},"CN_GUDO_ZH0023":{"id":"CN_GUDO_ZH0023","code":"ZH0023","locator":"CN_GUDO_ZH","body":{"birth":1995},"service":{},"charge":{},"character":{},"rating":{"t":1622187190693,"shape":70,"character":70},"status":{"t":1622187190693},"location":{"nation":"CN","province":"GUDO","city":"ZH","district":"拱北"},"feed":{"t":1622187190693},"secret":{"t":1622187190693},"extra":{},"type":1},"CN_GUDO_ZH0098":{"id":"CN_GUDO_ZH0098","code":"ZH0098","locator":"CN_GUDO_ZH","body":{"birth":1995},"service":{"form":8},"charge":{},"character":{},"rating":{"t":1622187190693,"shape":70},"status":{"t":1622187190693},"location":{"nation":"CN","province":"GUDO","city":"ZH","district":"夏湾"},"feed":{"t":1622187190693},"secret":{"t":1622187190693},"extra":{},"type":1},"CN_GUDO_ZH0216":{"id":"CN_GUDO_ZH0216","code":"ZH0216","locator":"CN_GUDO_ZH","body":{"birth":1990},"service":{},"charge":{},"character":{},"rating":{"t":1622187190693,"shape":70,"service":70},"status":{"t":1622187190693},"location":{"nation":"CN","province":"GUDO","city":"ZH","district":"拱北"},"feed":{"t":1622187190693},"secret":{"t":1622187190693},"extra":{},"type":1},"CN_GUDO_ZH0240":{"id":"CN_GUDO_ZH0240","code":"ZH0240","locator":"CN_GUDO_ZH","body":{"cosmetic":1,"birth":1995},"service":{"form":8},"charge":{},"character":{},"rating":{"t":1622187190693,"shape":70},"status":{"t":1622187190693},"location":{"nation":"CN","province":"GUDO","city":"ZH","district":"吉大"},"feed":{"t":1622187190693},"secret":{"t":1622187190693},"extra":{},"type":1},"CN_GUDO_ZH0287":{"id":"CN_GUDO_ZH0287","code":"ZH0287","locator":"CN_GUDO_ZH","body":{"height":170,"chest":40,"birth":1995},"service":{"form":8},"charge":{},"character":{},"rating":{"t":1622187190693,"shape":70},"status":{"t":1622187190693},"location":{"nation":"CN","province":"GUDO","city":"ZH","district":"明珠/上沖"},"feed":{"t":1622187190693},"secret":{"t":1622187190693},"extra":{},"type":1},"CN_GUDO_ZH0306":{"id":"CN_GUDO_ZH0306","code":"ZH0306","locator":"CN_GUDO_ZH","body":{"height":160,"chest":30,"birth":1995},"service":{},"charge":{},"character":{},"rating":{"t":1622187190693,"shape":70,"character":70},"status":{"t":1622187190693},"location":{"nation":"CN","province":"GUDO","city":"ZH","district":"拱北,兰埔"},"feed":{"t":1622187190693},"secret":{"t":1622187190693},"extra":{},"type":1},"CN_GUDO_ZH0281":{"id":"CN_GUDO_ZH0281","code":"ZH0281","locator":"CN_GUDO_ZH","body":{"height":160,"chest":40,"birth":1995},"service":{"form":8},"charge":{},"character":{},"rating":{"t":1622187190693},"status":{"t":1622187190693},"location":{"nation":"CN","province":"GUDO","city":"ZH","district":"夏湾,前山"},"feed":{"t":1622187190693},"secret":{"t":1622187190693},"extra":{},"type":1},"CN_GUDO_ZH0289":{"id":"CN_GUDO_ZH0289","code":"ZH0289","locator":"CN_GUDO_ZH","body":{"height":160,"chest":30,"cosmetic":1,"birth":1990},"service":{"form":8},"charge":{},"character":{},"rating":{"t":1622187190693,"service":70},"status":{"t":1622187190693},"location":{"nation":"CN","province":"GUDO","city":"ZH","district":"明珠/上沖"},"feed":{"t":1622187190693},"secret":{"t":1622187190693},"extra":{},"type":1},"CN_GUDO_ZH0314":{"id":"CN_GUDO_ZH0314","code":"ZH0314","locator":"CN_GUDO_ZH","body":{"height":160,"chest":40,"birth":1995,"cosmetic":0},"service":{"open":0,"mouth":0,"hand":0,"body":0,"pubis":0,"tool":0,"form":0},"charge":{"x1":"400"},"character":{"flag":0},"rating":{"t":1622187190693},"status":{"t":1622187190693,"flag":128},"location":{"nation":"CN","province":"GUDO","city":"ZH","district":"拱北"},"feed":{"t":1622187190693},"secret":{"t":1622187190693},"extra":{},"type":1},"CN_GUDO_ZH0003":{"id":"CN_GUDO_ZH0003","code":"ZH0003","locator":"CN_GUDO_ZH","body":{"height":"157","chest":"25","birth":"1999","cosmetic":512,"weight":"51"},"service":{"open":256,"mouth":48,"hand":72,"body":16,"pubis":0,"tool":0,"form":0},"charge":{"x1":"350"},"character":{"flag":64},"rating":{"t":1622187190693,"character":""},"status":{"t":1622187190693,"flag":1},"location":{"nation":"CN","province":"GUDO","city":"ZH","district":"拱北,夏湾","street":""},"feed":{"t":1622187190693},"secret":{"t":1622187190693},"extra":{},"type":1,"name":"潇潇","t":1622371709091},"CN_GUDO_ZH0263":{"id":"CN_GUDO_ZH0263","code":"ZH0263","locator":"CN_GUDO_ZH","body":{"height":155,"chest":50,"birth":1990},"service":{"form":8},"charge":{},"character":{},"rating":{"t":1622187190693},"status":{"t":1622187190693},"location":{"nation":"CN","province":"GUDO","city":"ZH","district":"拱北"},"feed":{"t":1622187190693},"secret":{"t":1622187190693},"extra":{},"type":1},"CN_GUDO_ZH0336":{"id":"CN_GUDO_ZH0336","code":"ZH0336","locator":"CN_GUDO_ZH","body":{"height":155,"chest":20,"birth":2000,"cosmetic":0},"service":{"open":0,"mouth":0,"hand":0,"body":0,"pubis":0,"tool":0,"form":0},"charge":{},"character":{"flag":0},"rating":{"t":1622187190693},"status":{"t":1622187190693,"flag":72},"location":{"nation":"CN","province":"GUDO","city":"ZH","district":"夏湾"},"feed":{"t":1622187190693},"secret":{"t":1622187190693},"extra":{},"type":1},"CN_GUDO_ZH0250":{"id":"CN_GUDO_ZH0250","code":"ZH0250","locator":"CN_GUDO_ZH","body":{"height":150,"birth":1995},"service":{},"charge":{},"character":{},"rating":{"t":1622187190693},"status":{"t":1622187190693},"location":{"nation":"CN","province":"GUDO","city":"ZH","district":"南屏"},"feed":{"t":1622187190693},"secret":{"t":1622187190693},"extra":{},"type":1},"CN_GUDO_ZH0047":{"id":"CN_GUDO_ZH0047","code":"ZH0047","locator":"CN_GUDO_ZH","body":{},"service":{},"charge":{},"character":{},"rating":{"t":1622187190693,"service":70},"status":{"t":1622187190693},"location":{"nation":"CN","province":"GUDO","city":"ZH","district":"拱北"},"feed":{"t":1622187190693},"secret":{"t":1622187190693},"extra":{},"type":1},"CN_GUDO_ZH0094":{"id":"CN_GUDO_ZH0094","code":"ZH0094","locator":"CN_GUDO_ZH","body":{},"service":{},"charge":{},"character":{},"rating":{"t":1622187190693,"service":70},"status":{"t":1622187190693},"location":{"nation":"CN","province":"GUDO","city":"ZH","district":"拱北"},"feed":{"t":1622187190693},"secret":{"t":1622187190693},"extra":{},"type":1},"CN_GUDO_ZH0139":{"id":"CN_GUDO_ZH0139","code":"ZH0139","locator":"CN_GUDO_ZH","body":{"birth":1995},"service":{},"charge":{},"character":{},"rating":{"t":1622187190693,"service":70},"status":{"t":1622187190693},"location":{"nation":"CN","province":"GUDO","city":"ZH","district":"兰埔"},"feed":{"t":1622187190693},"secret":{"t":1622187190693},"extra":{},"type":1},"CN_GUDO_ZH0151":{"id":"CN_GUDO_ZH0151","code":"ZH0151","locator":"CN_GUDO_ZH","body":{"birth":1985},"service":{},"charge":{},"character":{},"rating":{"t":1622187190693,"service":70},"status":{"t":1622187190693},"location":{"nation":"CN","province":"GUDO","city":"ZH","district":"拱北"},"feed":{"t":1622187190693},"secret":{"t":1622187190693},"extra":{},"type":1},"CN_GUDO_ZH0157":{"id":"CN_GUDO_ZH0157","code":"ZH0157","locator":"CN_GUDO_ZH","body":{"birth":1985},"service":{},"charge":{},"character":{},"rating":{"t":1622187190693,"service":70},"status":{"t":1622187190693},"location":{"nation":"CN","province":"GUDO","city":"ZH","district":"拱北"},"feed":{"t":1622187190693},"secret":{"t":1622187190693},"extra":{},"type":1},"CN_GUDO_ZH0171":{"id":"CN_GUDO_ZH0171","code":"ZH0171","locator":"CN_GUDO_ZH","body":{"birth":1990},"service":{},"charge":{},"character":{},"rating":{"t":1622187190693,"service":70},"status":{"t":1622187190693},"location":{"nation":"CN","province":"GUDO","city":"ZH","district":"拱北"},"feed":{"t":1622187190693},"secret":{"t":1622187190693},"extra":{},"type":1},"CN_GUDO_ZH0182":{"id":"CN_GUDO_ZH0182","code":"ZH0182","locator":"CN_GUDO_ZH","body":{"birth":1990},"service":{},"charge":{},"character":{},"rating":{"t":1622187190693,"service":70},"status":{"t":1622187190693},"location":{"nation":"CN","province":"GUDO","city":"ZH","district":"拱北"},"feed":{"t":1622187190693},"secret":{"t":1622187190693},"extra":{},"type":1},"CN_GUDO_ZH0192":{"id":"CN_GUDO_ZH0192","code":"ZH0192","locator":"CN_GUDO_ZH","body":{"birth":1985},"service":{},"charge":{},"character":{},"rating":{"t":1622187190693,"service":70},"status":{"t":1622187190693},"location":{"nation":"CN","province":"GUDO","city":"ZH","district":"拱北"},"feed":{"t":1622187190693},"secret":{"t":1622187190693},"extra":{},"type":1},"CN_GUDO_ZH0193":{"id":"CN_GUDO_ZH0193","code":"ZH0193","locator":"CN_GUDO_ZH","body":{"birth":1985},"service":{},"charge":{},"character":{},"rating":{"t":1622187190693,"service":70},"status":{"t":1622187190693},"location":{"nation":"CN","province":"GUDO","city":"ZH","district":"拱北"},"feed":{"t":1622187190693},"secret":{"t":1622187190693},"extra":{},"type":1},"CN_GUDO_ZH0201":{"id":"CN_GUDO_ZH0201","code":"ZH0201","locator":"CN_GUDO_ZH","body":{"birth":1985},"service":{},"charge":{},"character":{},"rating":{"t":1622187190693,"service":70},"status":{"t":1622187190693},"location":{"nation":"CN","province":"GUDO","city":"ZH","district":"拱北"},"feed":{"t":1622187190693},"secret":{"t":1622187190693},"extra":{},"type":1},"CN_GUDO_ZH0203":{"id":"CN_GUDO_ZH0203","code":"ZH0203","locator":"CN_GUDO_ZH","body":{"birth":1990},"service":{},"charge":{},"character":{},"rating":{"t":1622187190693,"service":70},"status":{"t":1622187190693},"location":{"nation":"CN","province":"GUDO","city":"ZH","district":"拱北"},"feed":{"t":1622187190693},"secret":{"t":1622187190693},"extra":{},"type":1},"CN_GUDO_ZH0227":{"id":"CN_GUDO_ZH0227","code":"ZH0227","locator":"CN_GUDO_ZH","body":{"birth":1990},"service":{"form":8},"charge":{},"character":{},"rating":{"t":1622187190693,"service":70},"status":{"t":1622187190693},"location":{"nation":"CN","province":"GUDO","city":"ZH","district":"吉大"},"feed":{"t":1622187190693},"secret":{"t":1622187190693},"extra":{},"type":1},"CN_GUDO_ZH0234":{"id":"CN_GUDO_ZH0234","code":"ZH0234","locator":"CN_GUDO_ZH","body":{"birth":1990},"service":{},"charge":{},"character":{},"rating":{"t":1622187190693,"service":70},"status":{"t":1622187190693},"location":{"nation":"CN","province":"GUDO","city":"ZH","district":"拱北"},"feed":{"t":1622187190693},"secret":{"t":1622187190693},"extra":{},"type":1},"CN_GUDO_ZH0048":{"id":"CN_GUDO_ZH0048","code":"ZH0048","locator":"CN_GUDO_ZH","body":{"birth":1995},"service":{},"charge":{},"character":{},"rating":{"t":1622187190693,"character":70},"status":{"t":1622187190693},"location":{"nation":"CN","province":"GUDO","city":"ZH","district":"拱北"},"feed":{"t":1622187190693},"secret":{"t":1622187190693},"extra":{},"type":1},"CN_GUDO_ZH0088":{"id":"CN_GUDO_ZH0088","code":"ZH0088","locator":"CN_GUDO_ZH","body":{},"service":{},"charge":{},"character":{},"rating":{"t":1622187190693,"character":70},"status":{"t":1622187190693},"location":{"nation":"CN","province":"GUDO","city":"ZH","district":"拱北"},"feed":{"t":1622187190693},"secret":{"t":1622187190693},"extra":{},"type":1},"CN_GUDO_ZH0123":{"id":"CN_GUDO_ZH0123","code":"ZH0123","locator":"CN_GUDO_ZH","body":{"birth":1990},"service":{},"charge":{},"character":{},"rating":{"t":1622187190693,"character":70},"status":{"t":1622187190693},"location":{"nation":"CN","province":"GUDO","city":"ZH","district":"拱北"},"feed":{"t":1622187190693},"secret":{"t":1622187190693},"extra":{},"type":1},"CN_GUDO_ZH0125":{"id":"CN_GUDO_ZH0125","code":"ZH0125","locator":"CN_GUDO_ZH","body":{"birth":1990},"service":{"flag":131072},"charge":{},"character":{},"rating":{"t":1622187190693},"status":{"t":1622187190693},"location":{"nation":"CN","province":"GUDO","city":"ZH","district":"拱北"},"feed":{"t":1622187190693},"secret":{"t":1622187190693},"extra":{},"type":1},"CN_GUDO_ZH0237":{"id":"CN_GUDO_ZH0237","code":"ZH0237","locator":"CN_GUDO_ZH","body":{"birth":1995},"service":{"form":8},"charge":{},"character":{},"rating":{"t":1622187190693},"status":{"t":1622187190693},"location":{"nation":"CN","province":"GUDO","city":"ZH","district":"夏湾"},"feed":{"t":1622187190693},"secret":{"t":1622187190693},"extra":{},"type":1},"CN_GUDO_ZH0238":{"id":"CN_GUDO_ZH0238","code":"ZH0238","locator":"CN_GUDO_ZH","body":{"birth":1995},"service":{"form":8},"charge":{},"character":{},"rating":{"t":1622187190693},"status":{"t":1622187190693},"location":{"nation":"CN","province":"GUDO","city":"ZH","district":"兰埔"},"feed":{"t":1622187190693},"secret":{"t":1622187190693},"extra":{},"type":1},"CN_GUDO_ZH0064":{"id":"CN_GUDO_ZH0064","code":"ZH0064","locator":"CN_GUDO_ZH","body":{"birth":2000},"service":{},"charge":{},"character":{},"rating":{"t":1622187190693},"status":{"t":1622187190693},"location":{"nation":"CN","province":"GUDO","city":"ZH","district":"拱北"},"feed":{"t":1622187190693},"secret":{"t":1622187190693},"extra":{},"type":1},"CN_GUDO_ZH0120":{"id":"CN_GUDO_ZH0120","code":"ZH0120","locator":"CN_GUDO_ZH","body":{"birth":2000},"service":{},"charge":{},"character":{},"rating":{"t":1622187190693},"status":{"t":1622187190693},"location":{"nation":"CN","province":"GUDO","city":"ZH","district":"兰埔"},"feed":{"t":1622187190693},"secret":{"t":1622187190693},"extra":{},"type":1},"CN_GUDO_ZH0163":{"id":"CN_GUDO_ZH0163","code":"ZH0163","locator":"CN_GUDO_ZH","body":{"birth":2000},"service":{},"charge":{},"character":{},"rating":{"t":1622187190693},"status":{"t":1622187190693},"location":{"nation":"CN","province":"GUDO","city":"ZH","district":"拱北"},"feed":{"t":1622187190693},"secret":{"t":1622187190693},"extra":{},"type":1},"CN_GUDO_ZH0218":{"id":"CN_GUDO_ZH0218","code":"ZH0218","locator":"CN_GUDO_ZH","body":{"birth":2000},"service":{},"charge":{},"character":{},"rating":{"t":1622187190693},"status":{"t":1622187190693},"location":{"nation":"CN","province":"GUDO","city":"ZH","district":"拱北"},"feed":{"t":1622187190693},"secret":{"t":1622187190693},"extra":{},"type":1},"CN_GUDO_ZH0239":{"id":"CN_GUDO_ZH0239","code":"ZH0239","locator":"CN_GUDO_ZH","body":{"birth":2000},"service":{},"charge":{},"character":{},"rating":{"t":1622187190693},"status":{"t":1622187190693},"location":{"nation":"CN","province":"GUDO","city":"ZH","district":"夏湾"},"feed":{"t":1622187190693},"secret":{"t":1622187190693},"extra":{},"type":1},"CN_GUDO_ZH0049":{"id":"CN_GUDO_ZH0049","code":"ZH0049","locator":"CN_GUDO_ZH","body":{"birth":1995},"service":{},"charge":{},"character":{},"rating":{"t":1622187190693},"status":{"t":1622187190693},"location":{"nation":"CN","province":"GUDO","city":"ZH","district":"兰埔"},"feed":{"t":1622187190693},"secret":{"t":1622187190693},"extra":{},"type":1},"CN_GUDO_ZH0050":{"id":"CN_GUDO_ZH0050","code":"ZH0050","locator":"CN_GUDO_ZH","body":{"birth":1995},"service":{},"charge":{},"character":{},"rating":{"t":1622187190693},"status":{"t":1622187190693},"location":{"nation":"CN","province":"GUDO","city":"ZH","district":"拱北"},"feed":{"t":1622187190693},"secret":{"t":1622187190693},"extra":{},"type":1},"CN_GUDO_ZH0052":{"id":"CN_GUDO_ZH0052","code":"ZH0052","locator":"CN_GUDO_ZH","body":{"birth":1995},"service":{},"charge":{},"character":{},"rating":{"t":1622187190693},"status":{"t":1622187190693},"location":{"nation":"CN","province":"GUDO","city":"ZH","district":"拱北"},"feed":{"t":1622187190693},"secret":{"t":1622187190693},"extra":{},"type":1},"CN_GUDO_ZH0055":{"id":"CN_GUDO_ZH0055","code":"ZH0055","locator":"CN_GUDO_ZH","body":{"birth":1995},"service":{},"charge":{},"character":{},"rating":{"t":1622187190693},"status":{"t":1622187190693},"location":{"nation":"CN","province":"GUDO","city":"ZH","district":"拱北"},"feed":{"t":1622187190693},"secret":{"t":1622187190693},"extra":{},"type":1},"CN_GUDO_ZH0110":{"id":"CN_GUDO_ZH0110","code":"ZH0110","locator":"CN_GUDO_ZH","body":{"birth":1995},"service":{},"charge":{},"character":{},"rating":{"t":1622187190693},"status":{"t":1622187190693},"location":{"nation":"CN","province":"GUDO","city":"ZH","district":"拱北"},"feed":{"t":1622187190693},"secret":{"t":1622187190693},"extra":{},"type":1},"CN_GUDO_ZH0121":{"id":"CN_GUDO_ZH0121","code":"ZH0121","locator":"CN_GUDO_ZH","body":{"birth":1995},"service":{},"charge":{},"character":{},"rating":{"t":1622187190693},"status":{"t":1622187190693},"location":{"nation":"CN","province":"GUDO","city":"ZH","district":"兰埔"},"feed":{"t":1622187190693},"secret":{"t":1622187190693},"extra":{},"type":1},"CN_GUDO_ZH0162":{"id":"CN_GUDO_ZH0162","code":"ZH0162","locator":"CN_GUDO_ZH","body":{"birth":1995},"service":{},"charge":{},"character":{},"rating":{"t":1622187190693},"status":{"t":1622187190693},"location":{"nation":"CN","province":"GUDO","city":"ZH","district":"拱北"},"feed":{"t":1622187190693},"secret":{"t":1622187190693},"extra":{},"type":1},"CN_GUDO_ZH0202":{"id":"CN_GUDO_ZH0202","code":"ZH0202","locator":"CN_GUDO_ZH","body":{"birth":1995},"service":{},"charge":{},"character":{},"rating":{"t":1622187190693},"status":{"t":1622187190693},"location":{"nation":"CN","province":"GUDO","city":"ZH","district":"拱北"},"feed":{"t":1622187190693},"secret":{"t":1622187190693},"extra":{},"type":1},"CN_GUDO_ZH0252":{"id":"CN_GUDO_ZH0252","code":"ZH0252","locator":"CN_GUDO_ZH","body":{"birth":1995},"service":{},"charge":{},"character":{},"rating":{"t":1622187190693},"status":{"t":1622187190693},"location":{"nation":"CN","province":"GUDO","city":"ZH","district":"明珠/上沖"},"feed":{"t":1622187190693},"secret":{"t":1622187190693},"extra":{},"type":1},"CN_GUDO_ZH0020":{"id":"CN_GUDO_ZH0020","code":"ZH0020","locator":"CN_GUDO_ZH","body":{"birth":1990},"service":{},"charge":{},"character":{},"rating":{"t":1622187190693},"status":{"t":1622187190693},"location":{"nation":"CN","province":"GUDO","city":"ZH","district":"拱北"},"feed":{"t":1622187190693},"secret":{"t":1622187190693},"extra":{},"type":1},"CN_GUDO_ZH0060":{"id":"CN_GUDO_ZH0060","code":"ZH0060","locator":"CN_GUDO_ZH","body":{"birth":1990},"service":{},"charge":{},"character":{},"rating":{"t":1622187190693},"status":{"t":1622187190693},"location":{"nation":"CN","province":"GUDO","city":"ZH","district":"拱北"},"feed":{"t":1622187190693},"secret":{"t":1622187190693},"extra":{},"type":1},"CN_GUDO_ZH0079":{"id":"CN_GUDO_ZH0079","code":"ZH0079","locator":"CN_GUDO_ZH","body":{"birth":1990},"service":{},"charge":{},"character":{},"rating":{"t":1622187190693},"status":{"t":1622187190693},"location":{"nation":"CN","province":"GUDO","city":"ZH","district":"拱北"},"feed":{"t":1622187190693},"secret":{"t":1622187190693},"extra":{},"type":1},"CN_GUDO_ZH0115":{"id":"CN_GUDO_ZH0115","code":"ZH0115","locator":"CN_GUDO_ZH","body":{"birth":1990},"service":{},"charge":{},"character":{},"rating":{"t":1622187190693},"status":{"t":1622187190693},"location":{"nation":"CN","province":"GUDO","city":"ZH","district":"拱北"},"feed":{"t":1622187190693},"secret":{"t":1622187190693},"extra":{},"type":1},"CN_GUDO_ZH0170":{"id":"CN_GUDO_ZH0170","code":"ZH0170","locator":"CN_GUDO_ZH","body":{"birth":1990},"service":{},"charge":{},"character":{},"rating":{"t":1622187190693},"status":{"t":1622187190693},"location":{"nation":"CN","province":"GUDO","city":"ZH","district":"拱北"},"feed":{"t":1622187190693},"secret":{"t":1622187190693},"extra":{},"type":1},"CN_GUDO_ZH0177":{"id":"CN_GUDO_ZH0177","code":"ZH0177","locator":"CN_GUDO_ZH","body":{"birth":1990},"service":{},"charge":{},"character":{},"rating":{"t":1622187190693},"status":{"t":1622187190693},"location":{"nation":"CN","province":"GUDO","city":"ZH","district":"拱北"},"feed":{"t":1622187190693},"secret":{"t":1622187190693},"extra":{},"type":1},"CN_GUDO_ZH0197":{"id":"CN_GUDO_ZH0197","code":"ZH0197","locator":"CN_GUDO_ZH","body":{"birth":1990},"service":{},"charge":{},"character":{},"rating":{"t":1622187190693},"status":{"t":1622187190693},"location":{"nation":"CN","province":"GUDO","city":"ZH","district":"拱北"},"feed":{"t":1622187190693},"secret":{"t":1622187190693},"extra":{},"type":1},"CN_GUDO_ZH0352":{"id":"CN_GUDO_ZH0352","code":"ZH0352","locator":"CN_GUDO_ZH","location":{"nation":"CN","province":"GUDO","city":"ZH","district":"拱北","street":"口岸"},"body":{"cosmetic":0,"birth":"1997","height":"163","weight":"54","chest":"40"},"status":{"flag":1,"t":1622246182079},"service":{"open":0,"mouth":37185,"hand":40,"body":16,"pubis":0,"tool":0,"form":0},"charge":{"g1":"500"},"character":{"flag":0},"rating":{"t":1622246182079,"attitude":"80","service":"80","body":"70","cooperative":"80"},"feed":{"t":1622246182079},"extra":{},"secret":{},"t":1622246182079,"type":0,"name":"橙橙"},"CN_GUDO_ZH0009":{"id":"CN_GUDO_ZH0009","code":"ZH0009","locator":"CN_GUDO_ZH","location":{"nation":"CN","province":"GUDO","city":"ZH","district":"拱北,兰埔","street":"摩尔广场"},"body":{"cosmetic":0,"birth":"1996","height":"157","weight":"43","chest":"20"},"status":{"flag":1,"t":1622279707104},"service":{"open":0,"mouth":45553,"hand":72,"body":16,"pubis":0,"tool":6,"form":0},"charge":{"x1":"500","g1":"600"},"character":{"flag":98432},"rating":{"t":1622279707104,"service":"90","face":"75","overall":"85","attitude":"90","mouth":"","character":""},"feed":{"t":1622279707104},"extra":{},"secret":{},"t":1622341479298,"type":1,"name":"美美"},"CN_GUDO_ZH0355":{"id":"CN_GUDO_ZH0355","code":"ZH0355","locator":"CN_GUDO_ZH","location":{"nation":"CN","province":"GUDO","city":"ZH","district":"拱北,兰埔","street":"摩尔广场"},"body":{"cosmetic":512,"birth":"1985","height":"159","weight":"55","chest":"30"},"status":{"flag":1,"t":1622372615713},"service":{"open":768,"mouth":37840,"hand":64,"body":16,"pubis":65536,"tool":16,"form":285278208},"charge":{"g1":"350","anal":"600","sm1":"500","np":"600"},"character":{"flag":0},"rating":{"t":1622372615713},"feed":{"t":1622372615713},"extra":{},"secret":{},"t":1622372615000,"type":1,"name":"艾艾"},"CN_GUDO_ZH0357":{"id":"CN_GUDO_ZH0357","code":"ZH0357","locator":"CN_GUDO_ZH","location":{"nation":"CN","province":"GUDO","city":"ZH","district":"拱北","street":"口岸"},"body":{"cosmetic":0,"birth":"1993","height":"160","weight":"48","chest":"30"},"status":{"flag":1,"t":1622373210175},"service":{"open":256,"mouth":5011,"hand":72,"body":48,"pubis":8,"tool":0,"form":8},"charge":{"x1":"400","x2":"700","night1":"1200"},"character":{"flag":0},"rating":{"t":1622373210175,"service":"80","character":"80","shape":"80","overall":"75"},"feed":{"t":1622373210175},"extra":{},"secret":{},"t":1622393441000,"type":1,"name":"梨梨"},"CN_GUDO_ZH0354":{"id":"CN_GUDO_ZH0354","code":"ZH0354","locator":"CN_GUDO_ZH","location":{"nation":"CN","province":"GUDO","city":"ZH","district":"上门,拱北,夏湾"},"body":{"cosmetic":0,"birth":"1996","height":"160","weight":"50","chest":"30"},"status":{"flag":1,"t":1622389748878},"service":{"open":256,"mouth":80,"hand":64,"body":16,"pubis":0,"tool":0,"form":0},"charge":{"x1":"400","outdoor":"700"},"character":{"flag":0},"rating":{"t":1622389748878},"feed":{"t":1622389748878},"extra":{},"secret":{},"t":1622371748000,"type":1,"name":"玲玲"},"CN_GUDO_ZH0356":{"id":"CN_GUDO_ZH0356","code":"ZH0356","locator":"CN_GUDO_ZH","location":{"nation":"CN","province":"GUDO","city":"ZH","district":"拱北","street":"口岸"},"body":{"cosmetic":0,"birth":"1992","height":"160","weight":"49","chest":"40"},"status":{"flag":1,"t":1622390471526},"service":{"open":16,"mouth":4272,"hand":113,"body":18,"pubis":0,"tool":0,"form":0},"charge":{"h2":"260"},"character":{"flag":0},"rating":{"t":1622390471526},"feed":{"t":1622390471526},"extra":{},"secret":{},"t":1622390471526,"type":1,"name":"米米"}}